[
  {
    "latitude": 30.218777777777778,
    "longitude": -81.87716666666665,
    "airportCode": "KVQQ",
    "airportName": "CECIL",
    "countryCode": "USA",
    "is_international": false,
    "countryName": "United States of America",
    "stateName": "Florida",
    "stateAbbr": "FL"
  },
  {
    "latitude": 24.57463611111111,
    "longitude": -81.68664444444445,
    "airportCode": "KNQX",
    "airportName": "KEY WEST NAS/BOCA CHICA FIELD",
    "countryCode": "USA",
    "is_international": false,
    "countryName": "United States of America",
    "stateName": "Florida",
    "stateAbbr": "FL"
  },
  {
    "latitude": 24.55611111111111,
    "longitude": -81.75955555555555,
    "airportCode": "KEYW",
    "airportName": "KEY WEST INTL",
    "countryCode": "USA",
    "is_international": true,
    "countryName": "United States of America",
    "stateName": "Florida",
    "stateAbbr": "FL"
  },
  {
    "latitude": 28.289805555555557,
    "longitude": -81.43708333333333,
    "airportCode": "KISM",
    "airportName": "KISSIMMEE GATEWAY",
    "countryCode": "USA",
    "is_international": false,
    "countryName": "United States of America",
    "stateName": "Florida",
    "stateAbbr": "FL"
  },
  {
    "latitude": 27.988916666666668,
    "longitude": -82.01855555555555,
    "airportCode": "KLAL",
    "airportName": "LAKELAND LINDER RGNL",
    "countryCode": "USA",
    "is_international": false,
    "countryName": "United States of America",
    "stateName": "Florida",
    "stateAbbr": "FL"
  },
  {
    "latitude": 28.82288888888889,
    "longitude": -81.80841666666666,
    "airportCode": "KLEE",
    "airportName": "LEESBURG INTL",
    "countryCode": "USA",
    "is_international": false,
    "countryName": "United States of America",
    "stateName": "Florida",
    "stateAbbr": "FL"
  },
  {
    "latitude": 27.84933333333333,
    "longitude": -82.52116666666666,
    "airportCode": "KMCF",
    "airportName": "MACDILL AFB",
    "countryCode": "USA",
    "is_international": false,
    "countryName": "United States of America",
    "stateName": "Florida",
    "stateAbbr": "FL"
  },
  {
    "latitude": 24.72619444444444,
    "longitude": -81.0513611111111,
    "airportCode": "KMTH",
    "airportName": "THE FLORIDA KEYS MARATHON",
    "countryCode": "USA",
    "is_international": false,
    "countryName": "United States of America",
    "stateName": "Florida",
    "stateAbbr": "FL"
  },
  {
    "latitude": 30.391375,
    "longitude": -81.42451944444444,
    "airportCode": "KNRB",
    "airportName": "MAYPORT NS (ADM DAVID L. MCDONALD FIELD)",
    "countryCode": "USA",
    "is_international": false,
    "countryName": "United States of America",
    "stateName": "Florida",
    "stateAbbr": "FL"
  },
  {
    "latitude": 28.10275,
    "longitude": -80.64525,
    "airportCode": "KMLB",
    "airportName": "MELBOURNE INTL",
    "countryCode": "USA",
    "is_international": false,
    "countryName": "United States of America",
    "stateName": "Florida",
    "stateAbbr": "FL"
  },
  {
    "latitude": 25.64756111111111,
    "longitude": -80.43322222222223,
    "airportCode": "KTMB",
    "airportName": "KENDALL-TAMIAMI EXECUTIVE",
    "countryCode": "USA",
    "is_international": false,
    "countryName": "United States of America",
    "stateName": "Florida",
    "stateAbbr": "FL"
  },
  {
    "latitude": 25.795361111111113,
    "longitude": -80.29011111111112,
    "airportCode": "KMIA",
    "airportName": "MIAMI INTL",
    "countryCode": "USA",
    "is_international": true,
    "countryName": "United States of America",
    "stateName": "Florida",
    "stateAbbr": "FL"
  },
  {
    "latitude": 25.907416666666666,
    "longitude": -80.27822222222223,
    "airportCode": "KOPF",
    "airportName": "OPA-LOCKA EXECUTIVE",
    "countryCode": "USA",
    "is_international": false,
    "countryName": "United States of America",
    "stateName": "Florida",
    "stateAbbr": "FL"
  },
  {
    "latitude": 26.152438888888888,
    "longitude": -81.77563611111111,
    "airportCode": "KAPF",
    "airportName": "NAPLES MUNI",
    "countryCode": "USA",
    "is_international": false,
    "countryName": "United States of America",
    "stateName": "Florida",
    "stateAbbr": "FL"
  },
  {
    "latitude": 29.171875,
    "longitude": -82.2241138888889,
    "airportCode": "KOCF",
    "airportName": "OCALA INTL-JIM TAYLOR FIELD",
    "countryCode": "USA",
    "is_international": false,
    "countryName": "United States of America",
    "stateName": "Florida",
    "stateAbbr": "FL"
  },
  {
    "latitude": 27.266583333333333,
    "longitude": -80.85038888888889,
    "airportCode": "KOBE",
    "airportName": "OKEECHOBEE COUNTY",
    "countryCode": "USA",
    "is_international": false,
    "countryName": "United States of America",
    "stateName": "Florida",
    "stateAbbr": "FL"
  },
  {
    "latitude": 28.42938888888889,
    "longitude": -81.309,
    "airportCode": "KMCO",
    "airportName": "ORLANDO INTL",
    "countryCode": "USA",
    "is_international": true,
    "countryName": "United States of America",
    "stateName": "Florida",
    "stateAbbr": "FL"
  },
  {
    "latitude": 28.545472222222223,
    "longitude": -81.33291666666666,
    "airportCode": "KORL",
    "airportName": "EXECUTIVE",
    "countryCode": "USA",
    "is_international": false,
    "countryName": "United States of America",
    "stateName": "Florida",
    "stateAbbr": "FL"
  },
  {
    "latitude": 30.35825,
    "longitude": -85.79561111111111,
    "airportCode": "KECP",
    "airportName": "NORTHWEST FLORIDA BEACHES INTL",
    "countryCode": "USA",
    "is_international": false,
    "countryName": "United States of America",
    "stateName": "Florida",
    "stateAbbr": "FL"
  },
  {
    "latitude": 28.234922222222224,
    "longitude": -80.610125,
    "airportCode": "KCOF",
    "airportName": "PATRICK AFB",
    "countryCode": "USA",
    "is_international": false,
    "countryName": "United States of America",
    "stateName": "Florida",
    "stateAbbr": "FL"
  },
  {
    "latitude": 30.473425,
    "longitude": -87.18661111111112,
    "airportCode": "KPNS",
    "airportName": "PENSACOLA INTL",
    "countryCode": "USA",
    "is_international": true,
    "countryName": "United States of America",
    "stateName": "Florida",
    "stateAbbr": "FL"
  },
  {
    "latitude": 30.352855555555557,
    "longitude": -87.31861944444444,
    "airportCode": "KNPA",
    "airportName": "PENSACOLA NAS/FORREST SHERMAN FIELD",
    "countryCode": "USA",
    "is_international": false,
    "countryName": "United States of America",
    "stateName": "Florida",
    "stateAbbr": "FL"
  },
  {
    "latitude": 26.918936111111112,
    "longitude": -81.990925,
    "airportCode": "KPGD",
    "airportName": "PUNTA GORDA",
    "countryCode": "USA",
    "is_international": false,
    "countryName": "United States of America",
    "stateName": "Florida",
    "stateAbbr": "FL"
  },
  {
    "latitude": 28.77697222222222,
    "longitude": -81.23491666666666,
    "airportCode": "KSFB",
    "airportName": "ORLANDO SANFORD INTL",
    "countryCode": "USA",
    "is_international": true,
    "countryName": "United States of America",
    "stateName": "Florida",
    "stateAbbr": "FL"
  },
  {
    "latitude": 27.395444444444443,
    "longitude": -82.55438888888888,
    "airportCode": "KSRQ",
    "airportName": "SARASOTA/BRADENTON INTL",
    "countryCode": "USA",
    "is_international": true,
    "countryName": "United States of America",
    "stateName": "Florida",
    "stateAbbr": "FL"
  },
  {
    "latitude": 27.90868611111111,
    "longitude": -82.68649166666667,
    "airportCode": "KPIE",
    "airportName": "ST. PETE-CLEARWATER INTL",
    "countryCode": "USA",
    "is_international": true,
    "countryName": "United States of America",
    "stateName": "Florida",
    "stateAbbr": "FL"
  },
  {
    "latitude": 27.76511111111111,
    "longitude": -82.62697222222222,
    "airportCode": "KSPG",
    "airportName": "ALBERT WHITTED",
    "countryCode": "USA",
    "is_international": false,
    "countryName": "United States of America",
    "stateName": "Florida",
    "stateAbbr": "FL"
  },
  {
    "latitude": 27.181694444444446,
    "longitude": -80.22130555555556,
    "airportCode": "KSUA",
    "airportName": "WITHAM FIELD",
    "countryCode": "USA",
    "is_international": false,
    "countryName": "United States of America",
    "stateName": "Florida",
    "stateAbbr": "FL"
  },
  {
    "latitude": 30.39675,
    "longitude": -84.3508611111111,
    "airportCode": "KTLH",
    "airportName": "TALLAHASSEE RGNL",
    "countryCode": "USA",
    "is_international": true,
    "countryName": "United States of America",
    "stateName": "Florida",
    "stateAbbr": "FL"
  },
  {
    "latitude": 27.97547222222222,
    "longitude": -82.53325,
    "airportCode": "KTPA",
    "airportName": "TAMPA INTL",
    "countryCode": "USA",
    "is_international": true,
    "countryName": "United States of America",
    "stateName": "Florida",
    "stateAbbr": "FL"
  },
  {
    "latitude": 28.5148,
    "longitude": -80.79922777777777,
    "airportCode": "KTIX",
    "airportName": "SPACE COAST RGNL",
    "countryCode": "USA",
    "is_international": false,
    "countryName": "United States of America",
    "stateName": "Florida",
    "stateAbbr": "FL"
  },
  {
    "latitude": 30.069566666666667,
    "longitude": -85.57541388888889,
    "airportCode": "KPAM",
    "airportName": "TYNDALL AFB",
    "countryCode": "USA",
    "is_international": false,
    "countryName": "United States of America",
    "stateName": "Florida",
    "stateAbbr": "FL"
  },
  {
    "latitude": 27.655555555555555,
    "longitude": -80.41794444444444,
    "airportCode": "KVRB",
    "airportName": "VERO BEACH MUNI",
    "countryCode": "USA",
    "is_international": false,
    "countryName": "United States of America",
    "stateName": "Florida",
    "stateAbbr": "FL"
  },
  {
    "latitude": 26.68316666666667,
    "longitude": -80.09558333333332,
    "airportCode": "KPBI",
    "airportName": "PALM BEACH INTL",
    "countryCode": "USA",
    "is_international": true,
    "countryName": "United States of America",
    "stateName": "Florida",
    "stateAbbr": "FL"
  },
  {
    "latitude": 30.724166666666665,
    "longitude": -87.02194444444444,
    "airportCode": "KNSE",
    "airportName": "WHITING FIELD NAS NORTH",
    "countryCode": "USA",
    "is_international": false,
    "countryName": "United States of America",
    "stateName": "Florida",
    "stateAbbr": "FL"
  },
  {
    "latitude": 28.062916666666666,
    "longitude": -81.75330555555556,
    "airportCode": "KGIF",
    "airportName": "WINTER HAVEN'S GILBERT",
    "countryCode": "USA",
    "is_international": false,
    "countryName": "United States of America",
    "stateName": "Florida",
    "stateAbbr": "FL"
  },
  {
    "latitude": 28.227988888888888,
    "longitude": -82.15599444444445,
    "airportCode": "KZPH",
    "airportName": "ZEPHYRHILLS MUNI",
    "countryCode": "USA",
    "is_international": false,
    "countryName": "United States of America",
    "stateName": "Florida",
    "stateAbbr": "FL"
  },
  {
    "latitude": 31.53552777777778,
    "longitude": -84.19447222222223,
    "airportCode": "KABY",
    "airportName": "SOUTHWEST GEORGIA RGNL",
    "countryCode": "USA",
    "is_international": false,
    "countryName": "United States of America",
    "stateName": "Georgia",
    "stateAbbr": "GA"
  },
  {
    "latitude": 33.94863888888889,
    "longitude": -83.32591666666666,
    "airportCode": "KAHN",
    "airportName": "ATHENS/BEN EPPS",
    "countryCode": "USA",
    "is_international": false,
    "countryName": "United States of America",
    "stateName": "Georgia",
    "stateAbbr": "GA"
  },
  {
    "latitude": 33.636697222222224,
    "longitude": -84.4278638888889,
    "airportCode": "KATL",
    "airportName": "HARTSFIELD - JACKSON  ATLANTA INTL",
    "countryCode": "USA",
    "is_international": true,
    "major": true,
    "countryName": "United States of America",
    "stateName": "Georgia",
    "stateAbbr": "GA"
  },
  {
    "latitude": 33.779125,
    "longitude": -84.52136388888889,
    "airportCode": "KFTY",
    "airportName": "FULTON COUNTY AIRPORT-BROWN FIELD",
    "countryCode": "USA",
    "is_international": false,
    "countryName": "United States of America",
    "stateName": "Georgia",
    "stateAbbr": "GA"
  },
  {
    "latitude": 33.91204166666667,
    "longitude": -84.94061944444445,
    "airportCode": "KPUJ",
    "airportName": "PAULDING NORTHWEST ATLANTA",
    "countryCode": "USA",
    "is_international": false,
    "countryName": "United States of America",
    "stateName": "Georgia",
    "stateAbbr": "GA"
  },
  {
    "latitude": 33.46658333333334,
    "longitude": -82.0393888888889,
    "airportCode": "KDNL",
    "airportName": "DANIEL FIELD",
    "countryCode": "USA",
    "is_international": false,
    "countryName": "United States of America",
    "stateName": "Georgia",
    "stateAbbr": "GA"
  },
  {
    "latitude": 33.36994444444444,
    "longitude": -81.9645,
    "airportCode": "KAGS",
    "airportName": "AUGUSTA RGNL AT BUSH FIELD",
    "countryCode": "USA",
    "is_international": true,
    "countryName": "United States of America",
    "stateName": "Georgia",
    "stateAbbr": "GA"
  },
  {
    "latitude": 30.971597222222222,
    "longitude": -84.63692777777779,
    "airportCode": "KBGE",
    "airportName": "DECATUR COUNTY INDUSTRIAL AIR PARK",
    "countryCode": "USA",
    "is_international": false,
    "countryName": "United States of America",
    "stateName": "Georgia",
    "stateAbbr": "GA"
  },
  {
    "latitude": 31.15197222222222,
    "longitude": -81.39105555555557,
    "airportCode": "KSSI",
    "airportName": "MALCOM MC KINNON",
    "countryCode": "USA",
    "is_international": false,
    "countryName": "United States of America",
    "stateName": "Georgia",
    "stateAbbr": "GA"
  },
  {
    "latitude": 31.259033333333335,
    "longitude": -81.46631388888889,
    "airportCode": "KBQK",
    "airportName": "BRUNSWICK GOLDEN ISLES",
    "countryCode": "USA",
    "is_international": false,
    "countryName": "United States of America",
    "stateName": "Georgia",
    "stateAbbr": "GA"
  },
  {
    "latitude": 32.516333333333336,
    "longitude": -84.93886111111111,
    "airportCode": "KCSG",
    "airportName": "COLUMBUS",
    "countryCode": "USA",
    "is_international": false,
    "countryName": "United States of America",
    "stateName": "Georgia",
    "stateAbbr": "GA"
  },
  {
    "latitude": 34.72293611111111,
    "longitude": -84.87023888888888,
    "airportCode": "KDNN",
    "airportName": "DALTON MUNI",
    "countryCode": "USA",
    "is_international": false,
    "countryName": "United States of America",
    "stateName": "Georgia",
    "stateAbbr": "GA"
  },
  {
    "latitude": 33.91444166666667,
    "longitude": -84.51424722222222,
    "airportCode": "KMGE",
    "airportName": "DOBBINS AIR RESERVE BASE",
    "countryCode": "USA",
    "is_international": false,
    "countryName": "United States of America",
    "stateName": "Georgia",
    "stateAbbr": "GA"
  },
  {
    "latitude": 32.56472222222222,
    "longitude": -82.98497222222223,
    "airportCode": "KDBN",
    "airportName": "W H 'BUD' BARRON",
    "countryCode": "USA",
    "is_international": false,
    "countryName": "United States of America",
    "stateName": "Georgia",
    "stateAbbr": "GA"
  },
  {
    "latitude": 32.33733333333333,
    "longitude": -84.99133333333333,
    "airportCode": "KLSF",
    "airportName": "LAWSON AAF (FORT BENNING)",
    "countryCode": "USA",
    "is_international": false,
    "countryName": "United States of America",
    "stateName": "Georgia",
    "stateAbbr": "GA"
  },
  {
    "latitude": 34.272625,
    "longitude": -83.83022222222222,
    "airportCode": "KGVL",
    "airportName": "LEE GILMER MEMORIAL",
    "countryCode": "USA",
    "is_international": false,
    "countryName": "United States of America",
    "stateName": "Georgia",
    "stateAbbr": "GA"
  },
  {
    "latitude": 33.00886111111111,
    "longitude": -85.0726111111111,
    "airportCode": "KLGC",
    "airportName": "LAGRANGE-CALLAWAY",
    "countryCode": "USA",
    "is_international": false,
    "countryName": "United States of America",
    "stateName": "Georgia",
    "stateAbbr": "GA"
  },
  {
    "latitude": 33.978075000000004,
    "longitude": -83.96237777777777,
    "airportCode": "KLZU",
    "airportName": "GWINNETT COUNTY - BRISCOE FIELD",
    "countryCode": "USA",
    "is_international": false,
    "countryName": "United States of America",
    "stateName": "Georgia",
    "stateAbbr": "GA"
  },
  {
    "latitude": 32.69283333333333,
    "longitude": -83.64922222222224,
    "airportCode": "KMCN",
    "airportName": "MIDDLE GEORGIA RGNL",
    "countryCode": "USA",
    "is_international": false,
    "countryName": "United States of America",
    "stateName": "Georgia",
    "stateAbbr": "GA"
  },
  {
    "latitude": 33.15416666666667,
    "longitude": -83.24069444444444,
    "airportCode": "KMLJ",
    "airportName": "BALDWIN COUNTY",
    "countryCode": "USA",
    "is_international": false,
    "countryName": "United States of America",
    "stateName": "Georgia",
    "stateAbbr": "GA"
  },
  {
    "latitude": 30.9687,
    "longitude": -83.1929638888889,
    "airportCode": "KVAD",
    "airportName": "MOODY AFB",
    "countryCode": "USA",
    "is_international": false,
    "countryName": "United States of America",
    "stateName": "Georgia",
    "stateAbbr": "GA"
  },
  {
    "latitude": 31.084916666666665,
    "longitude": -83.80324999999999,
    "airportCode": "KMGR",
    "airportName": "MOULTRIE MUNI",
    "countryCode": "USA",
    "is_international": false,
    "countryName": "United States of America",
    "stateName": "Georgia",
    "stateAbbr": "GA"
  },
  {
    "latitude": 33.87561111111111,
    "longitude": -84.30197222222222,
    "airportCode": "KPDK",
    "airportName": "DEKALB-PEACHTREE",
    "countryCode": "USA",
    "is_international": false,
    "countryName": "United States of America",
    "stateName": "Georgia",
    "stateAbbr": "GA"
  },
  {
    "latitude": 34.35078055555556,
    "longitude": -85.15866666666668,
    "airportCode": "KRMG",
    "airportName": "RICHARD B. RUSSELL REGIONAL-J.H. TOWERS FIELD",
    "countryCode": "USA",
    "is_international": false,
    "countryName": "United States of America",
    "stateName": "Georgia",
    "stateAbbr": "GA"
  },
  {
    "latitude": 32.127583333333334,
    "longitude": -81.2021388888889,
    "airportCode": "KSAV",
    "airportName": "SAVANNAH/HILTON HEAD INTL",
    "countryCode": "USA",
    "is_international": true,
    "countryName": "United States of America",
    "stateName": "Georgia",
    "stateAbbr": "GA"
  },
  {
    "latitude": 32.01,
    "longitude": -81.14566666666667,
    "airportCode": "KSVN",
    "airportName": "HUNTER AAF",
    "countryCode": "USA",
    "is_international": false,
    "countryName": "United States of America",
    "stateName": "Georgia",
    "stateAbbr": "GA"
  },
  {
    "latitude": 32.48275,
    "longitude": -81.73694444444445,
    "airportCode": "KTBR",
    "airportName": "STATESBORO-BULLOCH COUNTY",
    "countryCode": "USA",
    "is_international": false,
    "countryName": "United States of America",
    "stateName": "Georgia",
    "stateAbbr": "GA"
  },
  {
    "latitude": 31.428972222222225,
    "longitude": -83.48852777777778,
    "airportCode": "KTMA",
    "airportName": "HENRY TIFT MYERS",
    "countryCode": "USA",
    "is_international": false,
    "countryName": "United States of America",
    "stateName": "Georgia",
    "stateAbbr": "GA"
  },
  {
    "latitude": 30.901805555555555,
    "longitude": -83.88113888888888,
    "airportCode": "KTVI",
    "airportName": "THOMASVILLE RGNL",
    "countryCode": "USA",
    "is_international": false,
    "countryName": "United States of America",
    "stateName": "Georgia",
    "stateAbbr": "GA"
  },
  {
    "latitude": 34.59281111111111,
    "longitude": -83.29636944444444,
    "airportCode": "KTOC",
    "airportName": "TOCCOA RG LETOURNEAU FIELD",
    "countryCode": "USA",
    "is_international": false,
    "countryName": "United States of America",
    "stateName": "Georgia",
    "stateAbbr": "GA"
  },
  {
    "latitude": 30.78137222222222,
    "longitude": -83.27621944444445,
    "airportCode": "KVLD",
    "airportName": "VALDOSTA RGNL",
    "countryCode": "USA",
    "is_international": false,
    "countryName": "United States of America",
    "stateName": "Georgia",
    "stateAbbr": "GA"
  },
  {
    "latitude": 32.192722222222216,
    "longitude": -82.37116666666665,
    "airportCode": "KVDI",
    "airportName": "VIDALIA RGNL",
    "countryCode": "USA",
    "is_international": false,
    "countryName": "United States of America",
    "stateName": "Georgia",
    "stateAbbr": "GA"
  },
  {
    "latitude": 32.64017222222222,
    "longitude": -83.59191944444444,
    "airportCode": "KWRB",
    "airportName": "ROBINS AFB",
    "countryCode": "USA",
    "is_international": false,
    "countryName": "United States of America",
    "stateName": "Georgia",
    "stateAbbr": "GA"
  },
  {
    "latitude": 33.98286111111111,
    "longitude": -83.66741666666667,
    "airportCode": "KWDR",
    "airportName": "BARROW COUNTY",
    "countryCode": "USA",
    "is_international": false,
    "countryName": "United States of America",
    "stateName": "Georgia",
    "stateAbbr": "GA"
  },
  {
    "latitude": 22.022772222222223,
    "longitude": -159.78505833333332,
    "airportCode": "PHBK",
    "airportName": "BARKING SANDS PMRF",
    "countryCode": "USA",
    "is_international": false,
    "countryName": "United States of America",
    "stateName": "Hawaii",
    "stateAbbr": "HI"
  },
  {
    "latitude": 19.76001388888889,
    "longitude": -155.5537666666667,
    "airportCode": "PHSF",
    "airportName": "BRADSHAW ARMY AIRFIELD",
    "countryCode": "USA",
    "is_international": false,
    "countryName": "United States of America",
    "stateName": "Hawaii",
    "stateAbbr": "HI"
  },
  {
    "latitude": 19.720263888888887,
    "longitude": -155.04846944444444,
    "airportCode": "PHTO",
    "airportName": "HILO INTL",
    "countryCode": "USA",
    "is_international": false,
    "countryName": "United States of America",
    "stateName": "Hawaii",
    "stateAbbr": "HI"
  },
  {
    "latitude": 21.317825,
    "longitude": -157.9202611111111,
    "airportCode": "PHNL",
    "airportName": "HONOLULU INTL",
    "countryCode": "USA",
    "is_international": true,
    "countryName": "United States of America",
    "stateName": "Hawaii",
    "stateAbbr": "HI"
  },
  {
    "latitude": 20.89865,
    "longitude": -156.43045833333332,
    "airportCode": "PHOG",
    "airportName": "KAHULUI",
    "countryCode": "USA",
    "is_international": true,
    "countryName": "United States of America",
    "stateName": "Hawaii",
    "stateAbbr": "HI"
  },
  {
    "latitude": 19.73876388888889,
    "longitude": -156.04563055555556,
    "airportCode": "PHKO",
    "airportName": "KONA INTL AT KEAHOLE ",
    "countryCode": "USA",
    "is_international": true,
    "countryName": "United States of America",
    "stateName": "Hawaii",
    "stateAbbr": "HI"
  },
  {
    "latitude": 21.450444444444443,
    "longitude": -157.76716666666667,
    "airportCode": "PHNG",
    "airportName": "KANEOHE BAY MCAS (MARION E. CARL FIELD)",
    "countryCode": "USA",
    "is_international": false,
    "countryName": "United States of America",
    "stateName": "Hawaii",
    "stateAbbr": "HI"
  },
  {
    "latitude": 21.30735277777778,
    "longitude": -158.07030277777778,
    "airportCode": "PHJR",
    "airportName": "KALAELOA (JOHN RODGERS FIELD)",
    "countryCode": "USA",
    "is_international": false,
    "countryName": "United States of America",
    "stateName": "Hawaii",
    "stateAbbr": "HI"
  },
  {
    "latitude": 20.96293611111111,
    "longitude": -156.67303055555556,
    "airportCode": "PHJH",
    "airportName": "KAPALUA",
    "countryCode": "USA",
    "is_international": false,
    "countryName": "United States of America",
    "stateName": "Hawaii",
    "stateAbbr": "HI"
  },
  {
    "latitude": 20.785611111111113,
    "longitude": -156.95141666666666,
    "airportCode": "PHNY",
    "airportName": "LANAI",
    "countryCode": "USA",
    "is_international": false,
    "countryName": "United States of America",
    "stateName": "Hawaii",
    "stateAbbr": "HI"
  },
  {
    "latitude": 21.975980555555555,
    "longitude": -159.33895555555557,
    "airportCode": "PHLI",
    "airportName": "LIHUE",
    "countryCode": "USA",
    "is_international": false,
    "countryName": "United States of America",
    "stateName": "Hawaii",
    "stateAbbr": "HI"
  },
  {
    "latitude": 21.152833333333334,
    "longitude": -157.09633333333335,
    "airportCode": "PHMK",
    "airportName": "MOLOKAI",
    "countryCode": "USA",
    "is_international": false,
    "countryName": "United States of America",
    "stateName": "Hawaii",
    "stateAbbr": "HI"
  },
  {
    "latitude": 21.4835,
    "longitude": -158.03966666666668,
    "airportCode": "PHHI",
    "airportName": "WHEELER AAF",
    "countryCode": "USA",
    "is_international": false,
    "countryName": "United States of America",
    "stateName": "Hawaii",
    "stateAbbr": "HI"
  },
  {
    "latitude": 28.201483333333332,
    "longitude": -177.38130833333335,
    "airportCode": "PMDY",
    "airportName": "HENDERSON FIELD",
    "countryCode": "USA",
    "is_international": false,
    "countryName": "United States of America",
    "stateName": "Hawaii",
    "stateAbbr": "HI"
  },
  {
    "latitude": 41.99205555555556,
    "longitude": -93.62183333333333,
    "airportCode": "KAMW",
    "airportName": "AMES MUNI",
    "countryCode": "USA",
    "is_international": false,
    "countryName": "United States of America",
    "stateName": "Iowa",
    "stateAbbr": "IA"
  },
  {
    "latitude": 41.40383333333333,
    "longitude": -95.04875,
    "airportCode": "KAIO",
    "airportName": "ATLANTIC MUNI",
    "countryCode": "USA",
    "is_international": false,
    "countryName": "United States of America",
    "stateName": "Iowa",
    "stateAbbr": "IA"
  },
  {
    "latitude": 42.04955555555556,
    "longitude": -93.8476111111111,
    "airportCode": "KBNW",
    "airportName": "BOONE MUNI",
    "countryCode": "USA",
    "is_international": false,
    "countryName": "United States of America",
    "stateName": "Iowa",
    "stateAbbr": "IA"
  },
  {
    "latitude": 40.78322222222222,
    "longitude": -91.12549999999999,
    "airportCode": "KBRL",
    "airportName": "SOUTHEAST IOWA RGNL",
    "countryCode": "USA",
    "is_international": false,
    "countryName": "United States of America",
    "stateName": "Iowa",
    "stateAbbr": "IA"
  },
  {
    "latitude": 42.04666666666667,
    "longitude": -94.78869444444445,
    "airportCode": "KCIN",
    "airportName": "ARTHUR N NEU",
    "countryCode": "USA",
    "is_international": false,
    "countryName": "United States of America",
    "stateName": "Iowa",
    "stateAbbr": "IA"
  },
  {
    "latitude": 41.88468611111111,
    "longitude": -91.71079722222223,
    "airportCode": "KCID",
    "airportName": "CEDAR RAPIDS MUNI,IA.",
    "countryCode": "USA",
    "is_international": true,
    "countryName": "United States of America",
    "stateName": "Iowa",
    "stateAbbr": "IA"
  },
  {
    "latitude": 43.07250277777778,
    "longitude": -92.61080833333332,
    "airportCode": "KCCY",
    "airportName": "NORTHEAST IOWA RGNL",
    "countryCode": "USA",
    "is_international": false,
    "countryName": "United States of America",
    "stateName": "Iowa",
    "stateAbbr": "IA"
  },
  {
    "latitude": 40.72219444444445,
    "longitude": -95.02661111111111,
    "airportCode": "KICL",
    "airportName": "SCHENCK FIELD",
    "countryCode": "USA",
    "is_international": false,
    "countryName": "United States of America",
    "stateName": "Iowa",
    "stateAbbr": "IA"
  },
  {
    "latitude": 41.83075,
    "longitude": -90.32897222222222,
    "airportCode": "KCWI",
    "airportName": "CLINTON MUNI",
    "countryCode": "USA",
    "is_international": false,
    "countryName": "United States of America",
    "stateName": "Iowa",
    "stateAbbr": "IA"
  },
  {
    "latitude": 41.26011111111111,
    "longitude": -95.75863888888888,
    "airportCode": "KCBF",
    "airportName": "COUNCIL BLUFFS MUNI",
    "countryCode": "USA",
    "is_international": false,
    "countryName": "United States of America",
    "stateName": "Iowa",
    "stateAbbr": "IA"
  },
  {
    "latitude": 41.02144444444444,
    "longitude": -94.36330555555556,
    "airportCode": "KCSQ",
    "airportName": "CRESTON MUNI",
    "countryCode": "USA",
    "is_international": false,
    "countryName": "United States of America",
    "stateName": "Iowa",
    "stateAbbr": "IA"
  },
  {
    "latitude": 41.61027777777778,
    "longitude": -90.58836111111111,
    "airportCode": "KDVN",
    "airportName": "DAVENPORT MUNI",
    "countryCode": "USA",
    "is_international": false,
    "countryName": "United States of America",
    "stateName": "Iowa",
    "stateAbbr": "IA"
  },
  {
    "latitude": 43.2755,
    "longitude": -91.7393888888889,
    "airportCode": "KDEH",
    "airportName": "DECORAH MUNI",
    "countryCode": "USA",
    "is_international": false,
    "countryName": "United States of America",
    "stateName": "Iowa",
    "stateAbbr": "IA"
  },
  {
    "latitude": 41.986583333333336,
    "longitude": -95.3805,
    "airportCode": "KDNS",
    "airportName": "DENISON MUNI",
    "countryCode": "USA",
    "is_international": false,
    "countryName": "United States of America",
    "stateName": "Iowa",
    "stateAbbr": "IA"
  },
  {
    "latitude": 41.53397222222222,
    "longitude": -93.66308333333333,
    "airportCode": "KDSM",
    "airportName": "DES MOINES INTL",
    "countryCode": "USA",
    "is_international": true,
    "countryName": "United States of America",
    "stateName": "Iowa",
    "stateAbbr": "IA"
  },
  {
    "latitude": 42.402,
    "longitude": -90.70947222222223,
    "airportCode": "KDBQ",
    "airportName": "DUBUQUE RGNL",
    "countryCode": "USA",
    "is_international": false,
    "countryName": "United States of America",
    "stateName": "Iowa",
    "stateAbbr": "IA"
  },
  {
    "latitude": 43.407180555555556,
    "longitude": -94.74644444444445,
    "airportCode": "KEST",
    "airportName": "ESTHERVILLE MUNI",
    "countryCode": "USA",
    "is_international": false,
    "countryName": "United States of America",
    "stateName": "Iowa",
    "stateAbbr": "IA"
  },
  {
    "latitude": 41.05571944444444,
    "longitude": -91.98081944444445,
    "airportCode": "KFFL",
    "airportName": "FAIRFIELD MUNI",
    "countryCode": "USA",
    "is_international": false,
    "countryName": "United States of America",
    "stateName": "Iowa",
    "stateAbbr": "IA"
  },
  {
    "latitude": 43.23475555555556,
    "longitude": -93.62410277777776,
    "airportCode": "KFXY",
    "airportName": "FOREST CITY MUNI",
    "countryCode": "USA",
    "is_international": false,
    "countryName": "United States of America",
    "stateName": "Iowa",
    "stateAbbr": "IA"
  },
  {
    "latitude": 42.55119444444444,
    "longitude": -94.19183333333334,
    "airportCode": "KFOD",
    "airportName": "FORT DODGE RGNL",
    "countryCode": "USA",
    "is_international": false,
    "countryName": "United States of America",
    "stateName": "Iowa",
    "stateAbbr": "IA"
  },
  {
    "latitude": 41.63977777777778,
    "longitude": -91.54813888888889,
    "airportCode": "KIOW",
    "airportName": "IOWA CITY MUNI",
    "countryCode": "USA",
    "is_international": false,
    "countryName": "United States of America",
    "stateName": "Iowa",
    "stateAbbr": "IA"
  },
  {
    "latitude": 42.471358333333335,
    "longitude": -93.27071944444444,
    "airportCode": "KIFA",
    "airportName": "IOWA FALLS MUNI",
    "countryCode": "USA",
    "is_international": false,
    "countryName": "United States of America",
    "stateName": "Iowa",
    "stateAbbr": "IA"
  },
  {
    "latitude": 40.45990833333334,
    "longitude": -91.4285,
    "airportCode": "KEOK",
    "airportName": "KEOKUK MUNI",
    "countryCode": "USA",
    "is_international": false,
    "countryName": "United States of America",
    "stateName": "Iowa",
    "stateAbbr": "IA"
  },
  {
    "latitude": 42.777944444444444,
    "longitude": -96.19369444444445,
    "airportCode": "KLRJ",
    "airportName": "LE MARS MUNI",
    "countryCode": "USA",
    "is_international": false,
    "countryName": "United States of America",
    "stateName": "Iowa",
    "stateAbbr": "IA"
  },
  {
    "latitude": 42.11275,
    "longitude": -92.91777777777779,
    "airportCode": "KMIW",
    "airportName": "MARSHALLTOWN MUNI",
    "countryCode": "USA",
    "is_international": false,
    "countryName": "United States of America",
    "stateName": "Iowa",
    "stateAbbr": "IA"
  },
  {
    "latitude": 43.157805555555555,
    "longitude": -93.33125,
    "airportCode": "KMCW",
    "airportName": "MASON CITY MUNI",
    "countryCode": "USA",
    "is_international": false,
    "countryName": "United States of America",
    "stateName": "Iowa",
    "stateAbbr": "IA"
  },
  {
    "latitude": 42.22036111111111,
    "longitude": -91.16329722222223,
    "airportCode": "KMXO",
    "airportName": "MONTICELLO RGNL",
    "countryCode": "USA",
    "is_international": false,
    "countryName": "United States of America",
    "stateName": "Iowa",
    "stateAbbr": "IA"
  },
  {
    "latitude": 40.94658888888888,
    "longitude": -91.51106944444444,
    "airportCode": "KMPZ",
    "airportName": "MOUNT PLEASANT MUNI, IA",
    "countryCode": "USA",
    "is_international": false,
    "countryName": "United States of America",
    "stateName": "Iowa",
    "stateAbbr": "IA"
  },
  {
    "latitude": 41.36788888888889,
    "longitude": -91.14822222222223,
    "airportCode": "KMUT",
    "airportName": "MUSCATINE MUNI",
    "countryCode": "USA",
    "is_international": false,
    "countryName": "United States of America",
    "stateName": "Iowa",
    "stateAbbr": "IA"
  },
  {
    "latitude": 41.674416666666666,
    "longitude": -93.02172222222222,
    "airportCode": "KTNU",
    "airportName": "NEWTON MUNI",
    "countryCode": "USA",
    "is_international": false,
    "countryName": "United States of America",
    "stateName": "Iowa",
    "stateAbbr": "IA"
  },
  {
    "latitude": 41.226111111111116,
    "longitude": -92.49383333333333,
    "airportCode": "KOOA",
    "airportName": "OSKALOOSA MUNI",
    "countryCode": "USA",
    "is_international": false,
    "countryName": "United States of America",
    "stateName": "Iowa",
    "stateAbbr": "IA"
  },
  {
    "latitude": 41.10718055555556,
    "longitude": -92.44707222222223,
    "airportCode": "KOTM",
    "airportName": "OTTUMWA RGNL",
    "countryCode": "USA",
    "is_international": false,
    "countryName": "United States of America",
    "stateName": "Iowa",
    "stateAbbr": "IA"
  },
  {
    "latitude": 41.828,
    "longitude": -94.15983333333334,
    "airportCode": "KPRO",
    "airportName": "PERRY MUNI",
    "countryCode": "USA",
    "is_international": false,
    "countryName": "United States of America",
    "stateName": "Iowa",
    "stateAbbr": "IA"
  },
  {
    "latitude": 42.402611111111106,
    "longitude": -96.38436111111112,
    "airportCode": "KSUX",
    "airportName": "SIOUX GATEWAY/COL. BUD DAY FIELD",
    "countryCode": "USA",
    "is_international": false,
    "countryName": "United States of America",
    "stateName": "Iowa",
    "stateAbbr": "IA"
  },
  {
    "latitude": 42.59722222222222,
    "longitude": -95.24066666666667,
    "airportCode": "KSLB",
    "airportName": "STORM LAKE MUNI",
    "countryCode": "USA",
    "is_international": false,
    "countryName": "United States of America",
    "stateName": "Iowa",
    "stateAbbr": "IA"
  },
  {
    "latitude": 42.55708333333333,
    "longitude": -92.40033333333334,
    "airportCode": "KALO",
    "airportName": "WATERLOO RGNL",
    "countryCode": "USA",
    "is_international": false,
    "countryName": "United States of America",
    "stateName": "Iowa",
    "stateAbbr": "IA"
  },
  {
    "latitude": 42.436411111111106,
    "longitude": -93.86896666666667,
    "airportCode": "KEBS",
    "airportName": "WEBSTER CITY MUNI",
    "countryCode": "USA",
    "is_international": false,
    "countryName": "United States of America",
    "stateName": "Iowa",
    "stateAbbr": "IA"
  },
  {
    "latitude": 43.56436111111111,
    "longitude": -116.22286111111111,
    "airportCode": "KBOI",
    "airportName": "BOISE AIR TERMINAL/GOWEN FLD",
    "countryCode": "USA",
    "is_international": true,
    "countryName": "United States of America",
    "stateName": "Idaho",
    "stateAbbr": "ID"
  },
  {
    "latitude": 42.54261111111111,
    "longitude": -113.77152777777778,
    "airportCode": "KBYI",
    "airportName": "BURLEY MUNI",
    "countryCode": "USA",
    "is_international": false,
    "countryName": "United States of America",
    "stateName": "Idaho",
    "stateAbbr": "ID"
  },
  {
    "latitude": 47.77430555555556,
    "longitude": -116.81958333333333,
    "airportCode": "KCOE",
    "airportName": "COEUR D'ALENE - PAPPY BOYINGTON FIELD",
    "countryCode": "USA",
    "is_international": false,
    "countryName": "United States of America",
    "stateName": "Idaho",
    "stateAbbr": "ID"
  },
  {
    "latitude": 43.50378055555556,
    "longitude": -114.29555833333333,
    "airportCode": "KSUN",
    "airportName": "FRIEDMAN MEMORIAL",
    "countryCode": "USA",
    "is_international": false,
    "countryName": "United States of America",
    "stateName": "Idaho",
    "stateAbbr": "ID"
  },
  {
    "latitude": 43.51372222222222,
    "longitude": -112.07074999999999,
    "airportCode": "KIDA",
    "airportName": "IDAHO FALLS RGNL",
    "countryCode": "USA",
    "is_international": true,
    "countryName": "United States of America",
    "stateName": "Idaho",
    "stateAbbr": "ID"
  },
  {
    "latitude": 46.374497222222224,
    "longitude": -117.01539444444444,
    "airportCode": "KLWS",
    "airportName": "LEWISTON-NEZ PERCE COUNTY",
    "countryCode": "USA",
    "is_international": false,
    "countryName": "United States of America",
    "stateName": "Idaho",
    "stateAbbr": "ID"
  },
  {
    "latitude": 44.88880277777778,
    "longitude": -116.10175277777778,
    "airportCode": "KMYL",
    "airportName": "MC CALL MUNI",
    "countryCode": "USA",
    "is_international": false,
    "countryName": "United States of America",
    "stateName": "Idaho",
    "stateAbbr": "ID"
  },
  {
    "latitude": 43.04359722222222,
    "longitude": -115.87243333333333,
    "airportCode": "KMUO",
    "airportName": "MOUNTAIN HOME AFB",
    "countryCode": "USA",
    "is_international": false,
    "countryName": "United States of America",
    "stateName": "Idaho",
    "stateAbbr": "ID"
  },
  {
    "latitude": 42.90980555555556,
    "longitude": -112.5959111111111,
    "airportCode": "KPIH",
    "airportName": "POCATELLO RGNL",
    "countryCode": "USA",
    "is_international": false,
    "countryName": "United States of America",
    "stateName": "Idaho",
    "stateAbbr": "ID"
  },
  {
    "latitude": 43.83391666666667,
    "longitude": -111.8051111111111,
    "airportCode": "KRXE",
    "airportName": "REXBURG-MADISON COUNTY",
    "countryCode": "USA",
    "is_international": false,
    "countryName": "United States of America",
    "stateName": "Idaho",
    "stateAbbr": "ID"
  },
  {
    "latitude": 45.12327777777778,
    "longitude": -113.88144444444444,
    "airportCode": "KSMN",
    "airportName": "LEMHI COUNTY",
    "countryCode": "USA",
    "is_international": false,
    "countryName": "United States of America",
    "stateName": "Idaho",
    "stateAbbr": "ID"
  },
  {
    "latitude": 42.48180833333333,
    "longitude": -114.48773611111112,
    "airportCode": "KTWF",
    "airportName": "JOSLIN FIELD-MAGIC VALLEY RGNL",
    "countryCode": "USA",
    "is_international": false,
    "countryName": "United States of America",
    "stateName": "Idaho",
    "stateAbbr": "ID"
  },
  {
    "latitude": 38.88991388888889,
    "longitude": -90.0459861111111,
    "airportCode": "KALN",
    "airportName": "ST LOUIS RGNL",
    "countryCode": "USA",
    "is_international": false,
    "countryName": "United States of America",
    "stateName": "Illinois",
    "stateAbbr": "IL"
  },
  {
    "latitude": 40.477111111111114,
    "longitude": -88.91591666666667,
    "airportCode": "KBMI",
    "airportName": "CENTRAL IL RGNL ARPT AT BLOOMINGTON-NORMAL",
    "countryCode": "USA",
    "is_international": false,
    "countryName": "United States of America",
    "stateName": "Illinois",
    "stateAbbr": "IL"
  },
  {
    "latitude": 38.57036111111111,
    "longitude": -90.15508333333334,
    "airportCode": "KCPS",
    "airportName": "ST LOUIS DOWNTOWN",
    "countryCode": "USA",
    "is_international": false,
    "countryName": "United States of America",
    "stateName": "Illinois",
    "stateAbbr": "IL"
  },
  {
    "latitude": 37.064138888888884,
    "longitude": -89.21952777777778,
    "airportCode": "KCIR",
    "airportName": "CAIRO RGNL",
    "countryCode": "USA",
    "is_international": false,
    "countryName": "United States of America",
    "stateName": "Illinois",
    "stateAbbr": "IL"
  },
  {
    "latitude": 37.778083333333335,
    "longitude": -89.25202777777778,
    "airportCode": "KMDH",
    "airportName": "SOUTHERN ILLINOIS",
    "countryCode": "USA",
    "is_international": false,
    "countryName": "United States of America",
    "stateName": "Illinois",
    "stateAbbr": "IL"
  },
  {
    "latitude": 38.51508333333334,
    "longitude": -89.09113888888888,
    "airportCode": "KENL",
    "airportName": "CENTRALIA MUNI",
    "countryCode": "USA",
    "is_international": false,
    "countryName": "United States of America",
    "stateName": "Illinois",
    "stateAbbr": "IL"
  },
  {
    "latitude": 40.03883333333333,
    "longitude": -88.27780555555556,
    "airportCode": "KCMI",
    "airportName": "UNIVERSITY OF ILLINOIS-WILLARD",
    "countryCode": "USA",
    "is_international": false,
    "countryName": "United States of America",
    "stateName": "Illinois",
    "stateAbbr": "IL"
  },
  {
    "latitude": 41.785983333333334,
    "longitude": -87.752425,
    "airportCode": "KMDW",
    "airportName": "CHICAGO MIDWAY INTL",
    "countryCode": "USA",
    "is_international": true,
    "countryName": "United States of America",
    "stateName": "Illinois",
    "stateAbbr": "IL"
  },
  {
    "latitude": 41.97731944444445,
    "longitude": -87.90800555555556,
    "airportCode": "KORD",
    "airportName": "CHICAGO-O'HARE INTL",
    "countryCode": "USA",
    "is_international": true,
    "major": true,
    "countryName": "United States of America",
    "stateName": "Illinois",
    "stateAbbr": "IL"
  },
  {
    "latitude": 41.90705277777778,
    "longitude": -88.24799722222222,
    "airportCode": "KDPA",
    "airportName": "DUPAGE",
    "countryCode": "USA",
    "is_international": false,
    "countryName": "United States of America",
    "stateName": "Illinois",
    "stateAbbr": "IL"
  },
  {
    "latitude": 40.19969444444444,
    "longitude": -87.59552777777778,
    "airportCode": "KDNV",
    "airportName": "VERMILION REGIONAL",
    "countryCode": "USA",
    "is_international": false,
    "countryName": "United States of America",
    "stateName": "Illinois",
    "stateAbbr": "IL"
  },
  {
    "latitude": 39.834563888888894,
    "longitude": -88.86568888888888,
    "airportCode": "KDEC",
    "airportName": "DECATUR",
    "countryCode": "USA",
    "is_international": false,
    "countryName": "United States of America",
    "stateName": "Illinois",
    "stateAbbr": "IL"
  },
  {
    "latitude": 42.246158333333334,
    "longitude": -89.5819861111111,
    "airportCode": "KFEP",
    "airportName": "ALBERTUS",
    "countryCode": "USA",
    "is_international": false,
    "countryName": "United States of America",
    "stateName": "Illinois",
    "stateAbbr": "IL"
  },
  {
    "latitude": 40.937999999999995,
    "longitude": -90.43112222222223,
    "airportCode": "KGBG",
    "airportName": "GALESBURG MUNI",
    "countryCode": "USA",
    "is_international": false,
    "countryName": "United States of America",
    "stateName": "Illinois",
    "stateAbbr": "IL"
  },
  {
    "latitude": 37.811255555555555,
    "longitude": -88.55025833333333,
    "airportCode": "KHSB",
    "airportName": "HARRISBURG-RALEIGH",
    "countryCode": "USA",
    "is_international": false,
    "countryName": "United States of America",
    "stateName": "Illinois",
    "stateAbbr": "IL"
  },
  {
    "latitude": 39.77461111111111,
    "longitude": -90.23827777777778,
    "airportCode": "KIJX",
    "airportName": "JACKSONVILLE MUNI",
    "countryCode": "USA",
    "is_international": false,
    "countryName": "United States of America",
    "stateName": "Illinois",
    "stateAbbr": "IL"
  },
  {
    "latitude": 41.51765833333333,
    "longitude": -88.17552222222223,
    "airportCode": "KJOT",
    "airportName": "JOLIET RGNL",
    "countryCode": "USA",
    "is_international": false,
    "countryName": "United States of America",
    "stateName": "Illinois",
    "stateAbbr": "IL"
  },
  {
    "latitude": 41.07138888888889,
    "longitude": -87.84627777777777,
    "airportCode": "KIKK",
    "airportName": "GREATER KANKAKEE",
    "countryCode": "USA",
    "is_international": false,
    "countryName": "United States of America",
    "stateName": "Illinois",
    "stateAbbr": "IL"
  },
  {
    "latitude": 38.76427777777778,
    "longitude": -87.60549999999999,
    "airportCode": "KLWV",
    "airportName": "LAWRENCEVILLE-VINCENNES INTL",
    "countryCode": "USA",
    "is_international": false,
    "countryName": "United States of America",
    "stateName": "Illinois",
    "stateAbbr": "IL"
  },
  {
    "latitude": 40.52008333333333,
    "longitude": -90.6523888888889,
    "airportCode": "KMQB",
    "airportName": "MACOMB MUNI",
    "countryCode": "USA",
    "is_international": false,
    "countryName": "United States of America",
    "stateName": "Illinois",
    "stateAbbr": "IL"
  },
  {
    "latitude": 37.75497222222222,
    "longitude": -89.01108333333333,
    "airportCode": "KMWA",
    "airportName": "WILLIAMSON COUNTY RGNL",
    "countryCode": "USA",
    "is_international": false,
    "countryName": "United States of America",
    "stateName": "Illinois",
    "stateAbbr": "IL"
  },
  {
    "latitude": 39.47788888888889,
    "longitude": -88.27997222222223,
    "airportCode": "KMTO",
    "airportName": "COLES COUNTY MEMORIAL",
    "countryCode": "USA",
    "is_international": false,
    "countryName": "United States of America",
    "stateName": "Illinois",
    "stateAbbr": "IL"
  },
  {
    "latitude": 41.448277777777776,
    "longitude": -90.50752777777778,
    "airportCode": "KMLI",
    "airportName": "QUAD CITY INTL",
    "countryCode": "USA",
    "is_international": true,
    "countryName": "United States of America",
    "stateName": "Illinois",
    "stateAbbr": "IL"
  },
  {
    "latitude": 38.32336111111111,
    "longitude": -88.85849999999999,
    "airportCode": "KMVN",
    "airportName": "MOUNT VERNON",
    "countryCode": "USA",
    "is_international": false,
    "countryName": "United States of America",
    "stateName": "Illinois",
    "stateAbbr": "IL"
  },
  {
    "latitude": 38.72182777777778,
    "longitude": -88.17643333333334,
    "airportCode": "KOLY",
    "airportName": "OLNEY-NOBLE",
    "countryCode": "USA",
    "is_international": false,
    "countryName": "United States of America",
    "stateName": "Illinois",
    "stateAbbr": "IL"
  },
  {
    "latitude": 42.11427777777778,
    "longitude": -87.90152777777779,
    "airportCode": "KPWK",
    "airportName": "CHICAGO EXECUTIVE",
    "countryCode": "USA",
    "is_international": false,
    "countryName": "United States of America",
    "stateName": "Illinois",
    "stateAbbr": "IL"
  },
  {
    "latitude": 40.66419444444444,
    "longitude": -89.69325,
    "airportCode": "KPIA",
    "airportName": "GENERAL DOWNING-PEORIA INTL",
    "countryCode": "USA",
    "is_international": true,
    "countryName": "United States of America",
    "stateName": "Illinois",
    "stateAbbr": "IL"
  },
  {
    "latitude": 41.350147222222226,
    "longitude": -89.15294444444444,
    "airportCode": "KVYS",
    "airportName": "ILLINOIS VALLEY RGNL-WALTER A DUNCAN FIELD",
    "countryCode": "USA",
    "is_international": false,
    "countryName": "United States of America",
    "stateName": "Illinois",
    "stateAbbr": "IL"
  },
  {
    "latitude": 39.943016666666665,
    "longitude": -91.19446111111111,
    "airportCode": "KUIN",
    "airportName": "QUINCY RGNL-BALDWIN FIELD",
    "countryCode": "USA",
    "is_international": false,
    "countryName": "United States of America",
    "stateName": "Illinois",
    "stateAbbr": "IL"
  },
  {
    "latitude": 42.195361111111104,
    "longitude": -89.09722222222221,
    "airportCode": "KRFD",
    "airportName": "CHICAGO/ROCKFORD INTL",
    "countryCode": "USA",
    "is_international": true,
    "countryName": "United States of America",
    "stateName": "Illinois",
    "stateAbbr": "IL"
  },
  {
    "latitude": 41.608111111111114,
    "longitude": -88.09619444444444,
    "airportCode": "KLOT",
    "airportName": "LEWIS UNIVERSITY",
    "countryCode": "USA",
    "is_international": false,
    "countryName": "United States of America",
    "stateName": "Illinois",
    "stateAbbr": "IL"
  },
  {
    "latitude": 38.64287222222222,
    "longitude": -88.96418611111112,
    "airportCode": "KSLO",
    "airportName": "SALEM-LECKRONE",
    "countryCode": "USA",
    "is_international": false,
    "countryName": "United States of America",
    "stateName": "Illinois",
    "stateAbbr": "IL"
  },
  {
    "latitude": 38.54516666666667,
    "longitude": -89.83519444444444,
    "airportCode": "KBLV",
    "airportName": "SCOTT AFB/MIDAMERICA",
    "countryCode": "USA",
    "is_international": false,
    "countryName": "United States of America",
    "stateName": "Illinois",
    "stateAbbr": "IL"
  },
  {
    "latitude": 38.14886111111111,
    "longitude": -89.69850277777778,
    "airportCode": "KSAR",
    "airportName": "SPARTA COMMUNITY-HUNTER FIELD",
    "countryCode": "USA",
    "is_international": false,
    "countryName": "United States of America",
    "stateName": "Illinois",
    "stateAbbr": "IL"
  },
  {
    "latitude": 39.84422222222222,
    "longitude": -89.67808333333333,
    "airportCode": "KSPI",
    "airportName": "ABRAHAM LINCOLN CAPITAL",
    "countryCode": "USA",
    "is_international": false,
    "countryName": "United States of America",
    "stateName": "Illinois",
    "stateAbbr": "IL"
  },
  {
    "latitude": 41.74283333333334,
    "longitude": -89.67627777777778,
    "airportCode": "KSQI",
    "airportName": "WHITESIDE CO ARPT-JOS H BITTORF FLD",
    "countryCode": "USA",
    "is_international": false,
    "countryName": "United States of America",
    "stateName": "Illinois",
    "stateAbbr": "IL"
  },
  {
    "latitude": 42.42216111111111,
    "longitude": -87.86790833333333,
    "airportCode": "KUGN",
    "airportName": "WAUKEGAN RGNL",
    "countryCode": "USA",
    "is_international": false,
    "countryName": "United States of America",
    "stateName": "Illinois",
    "stateAbbr": "IL"
  },
  {
    "latitude": 41.639697222222225,
    "longitude": -85.08349444444444,
    "airportCode": "KANQ",
    "airportName": "TRI-STATE STEUBEN COUNTY",
    "countryCode": "USA",
    "is_international": false,
    "countryName": "United States of America",
    "stateName": "Indiana",
    "stateAbbr": "IN"
  },
  {
    "latitude": 39.14601944444444,
    "longitude": -86.61667777777777,
    "airportCode": "KBMG",
    "airportName": "MONROE COUNTY .IN",
    "countryCode": "USA",
    "is_international": false,
    "countryName": "United States of America",
    "stateName": "Indiana",
    "stateAbbr": "IN"
  },
  {
    "latitude": 39.261916666666664,
    "longitude": -85.89633333333335,
    "airportCode": "KBAK",
    "airportName": "COLUMBUS MUNI,IN.",
    "countryCode": "USA",
    "is_international": false,
    "countryName": "United States of America",
    "stateName": "Indiana",
    "stateAbbr": "IN"
  },
  {
    "latitude": 38.04080555555555,
    "longitude": -87.5285,
    "airportCode": "KEVV",
    "airportName": "EVANSVILLE RGNL",
    "countryCode": "USA",
    "is_international": false,
    "countryName": "United States of America",
    "stateName": "Indiana",
    "stateAbbr": "IN"
  },
  {
    "latitude": 40.97847222222222,
    "longitude": -85.19516666666667,
    "airportCode": "KFWA",
    "airportName": "FORT WAYNE INTL",
    "countryCode": "USA",
    "is_international": false,
    "countryName": "United States of America",
    "stateName": "Indiana",
    "stateAbbr": "IN"
  },
  {
    "latitude": 41.61725,
    "longitude": -87.41452777777778,
    "airportCode": "KGYY",
    "airportName": "GARY/CHICAGO INTL",
    "countryCode": "USA",
    "is_international": false,
    "countryName": "United States of America",
    "stateName": "Indiana",
    "stateAbbr": "IN"
  },
  {
    "latitude": 41.526263888888884,
    "longitude": -85.79416111111111,
    "airportCode": "KGSH",
    "airportName": "GOSHEN MUNI",
    "countryCode": "USA",
    "is_international": false,
    "countryName": "United States of America",
    "stateName": "Indiana",
    "stateAbbr": "IN"
  },
  {
    "latitude": 40.648091666666666,
    "longitude": -86.15211944444445,
    "airportCode": "KGUS",
    "airportName": "GRISSOM AFB",
    "countryCode": "USA",
    "is_international": false,
    "countryName": "United States of America",
    "stateName": "Indiana",
    "stateAbbr": "IN"
  },
  {
    "latitude": 39.717305555555555,
    "longitude": -86.29463888888888,
    "airportCode": "KIND",
    "airportName": "INDIANAPOLIS INTL",
    "countryCode": "USA",
    "is_international": true,
    "countryName": "United States of America",
    "stateName": "Indiana",
    "stateAbbr": "IN"
  },
  {
    "latitude": 40.52817777777778,
    "longitude": -86.05898888888889,
    "airportCode": "KOKK",
    "airportName": "KOKOMO MUNI",
    "countryCode": "USA",
    "is_international": false,
    "countryName": "United States of America",
    "stateName": "Indiana",
    "stateAbbr": "IN"
  },
  {
    "latitude": 40.412305555555555,
    "longitude": -86.93688888888889,
    "airportCode": "KLAF",
    "airportName": "PURDUE UNIVERSITY",
    "countryCode": "USA",
    "is_international": false,
    "countryName": "United States of America",
    "stateName": "Indiana",
    "stateAbbr": "IN"
  },
  {
    "latitude": 40.489916666666666,
    "longitude": -85.67977777777779,
    "airportCode": "KMZZ",
    "airportName": "MARION MUNI, IN",
    "countryCode": "USA",
    "is_international": false,
    "countryName": "United States of America",
    "stateName": "Indiana",
    "stateAbbr": "IN"
  },
  {
    "latitude": 41.703319444444446,
    "longitude": -86.82124999999999,
    "airportCode": "KMGC",
    "airportName": "MICHIGAN CITY MUNI-PHILLIPS FIELD",
    "countryCode": "USA",
    "is_international": false,
    "countryName": "United States of America",
    "stateName": "Indiana",
    "stateAbbr": "IN"
  },
  {
    "latitude": 40.242472222222226,
    "longitude": -85.39575,
    "airportCode": "KMIE",
    "airportName": "DELAWARE COUNTY RGNL",
    "countryCode": "USA",
    "is_international": false,
    "countryName": "United States of America",
    "stateName": "Indiana",
    "stateAbbr": "IN"
  },
  {
    "latitude": 41.06554722222222,
    "longitude": -86.18170277777779,
    "airportCode": "KRCR",
    "airportName": "FULTON COUNTY",
    "countryCode": "USA",
    "is_international": false,
    "countryName": "United States of America",
    "stateName": "Indiana",
    "stateAbbr": "IN"
  },
  {
    "latitude": 41.708222222222226,
    "longitude": -86.31733333333332,
    "airportCode": "KSBN",
    "airportName": "SOUTH BEND INTL",
    "countryCode": "USA",
    "is_international": true,
    "countryName": "United States of America",
    "stateName": "Indiana",
    "stateAbbr": "IN"
  },
  {
    "latitude": 39.45147222222222,
    "longitude": -87.30758333333333,
    "airportCode": "KHUF",
    "airportName": "TERRE HAUTE INTL-HULMAN FIELD",
    "countryCode": "USA",
    "is_international": false,
    "countryName": "United States of America",
    "stateName": "Indiana",
    "stateAbbr": "IN"
  },
  {
    "latitude": 41.453966666666666,
    "longitude": -87.00707222222222,
    "airportCode": "KVPZ",
    "airportName": "PORTER COUNTY RGNL",
    "countryCode": "USA",
    "is_international": false,
    "countryName": "United States of America",
    "stateName": "Indiana",
    "stateAbbr": "IN"
  },
  {
    "latitude": 37.66788888888889,
    "longitude": -95.48672222222223,
    "airportCode": "KCNU",
    "airportName": "CHANUTE MARTIN JOHNSON",
    "countryCode": "USA",
    "is_international": false,
    "countryName": "United States of America",
    "stateName": "Kansas",
    "stateAbbr": "KS"
  },
  {
    "latitude": 37.094,
    "longitude": -95.572,
    "airportCode": "KCFV",
    "airportName": "COFFEYVILLE MUNI",
    "countryCode": "USA",
    "is_international": false,
    "countryName": "United States of America",
    "stateName": "Kansas",
    "stateAbbr": "KS"
  },
  {
    "latitude": 39.54922222222222,
    "longitude": -97.65230555555556,
    "airportCode": "KCNK",
    "airportName": "BLOSSER MUNI",
    "countryCode": "USA",
    "is_international": false,
    "countryName": "United States of America",
    "stateName": "Kansas",
    "stateAbbr": "KS"
  },
  {
    "latitude": 37.76311111111111,
    "longitude": -99.96541666666667,
    "airportCode": "KDDC",
    "airportName": "DODGE CITY RGNL",
    "countryCode": "USA",
    "is_international": false,
    "countryName": "United States of America",
    "stateName": "Kansas",
    "stateAbbr": "KS"
  },
  {
    "latitude": 38.330555555555556,
    "longitude": -96.18994444444445,
    "airportCode": "KEMP",
    "airportName": "EMPORIA MUNI",
    "countryCode": "USA",
    "is_international": false,
    "countryName": "United States of America",
    "stateName": "Kansas",
    "stateAbbr": "KS"
  },
  {
    "latitude": 39.05533333333333,
    "longitude": -96.7645,
    "airportCode": "KFRI",
    "airportName": "MARSHALL AAF",
    "countryCode": "USA",
    "is_international": false,
    "countryName": "United States of America",
    "stateName": "Kansas",
    "stateAbbr": "KS"
  },
  {
    "latitude": 37.927527777777776,
    "longitude": -100.72441666666667,
    "airportCode": "KGCK",
    "airportName": "GARDEN CITY RGNL",
    "countryCode": "USA",
    "is_international": false,
    "countryName": "United States of America",
    "stateName": "Kansas",
    "stateAbbr": "KS"
  },
  {
    "latitude": 39.37063888888889,
    "longitude": -101.699,
    "airportCode": "KGLD",
    "airportName": "RENNER FLD /GOODLAND MUNI/",
    "countryCode": "USA",
    "is_international": false,
    "countryName": "United States of America",
    "stateName": "Kansas",
    "stateAbbr": "KS"
  },
  {
    "latitude": 38.34425,
    "longitude": -98.85919444444444,
    "airportCode": "KGBD",
    "airportName": "GREAT BEND MUNI",
    "countryCode": "USA",
    "is_international": false,
    "countryName": "United States of America",
    "stateName": "Kansas",
    "stateAbbr": "KS"
  },
  {
    "latitude": 38.842222222222226,
    "longitude": -99.27316666666667,
    "airportCode": "KHYS",
    "airportName": "HAYS RGNL",
    "countryCode": "USA",
    "is_international": false,
    "countryName": "United States of America",
    "stateName": "Kansas",
    "stateAbbr": "KS"
  },
  {
    "latitude": 39.38019444444444,
    "longitude": -99.83147222222222,
    "airportCode": "KHLC",
    "airportName": "HILL CITY MUNI",
    "countryCode": "USA",
    "is_international": false,
    "countryName": "United States of America",
    "stateName": "Kansas",
    "stateAbbr": "KS"
  },
  {
    "latitude": 38.0655,
    "longitude": -97.86063888888889,
    "airportCode": "KHUT",
    "airportName": "HUTCHINSON MUNI",
    "countryCode": "USA",
    "is_international": false,
    "countryName": "United States of America",
    "stateName": "Kansas",
    "stateAbbr": "KS"
  },
  {
    "latitude": 37.157925,
    "longitude": -95.77839444444444,
    "airportCode": "KIDP",
    "airportName": "INDEPENDENCE MUNI",
    "countryCode": "USA",
    "is_international": false,
    "countryName": "United States of America",
    "stateName": "Kansas",
    "stateAbbr": "KS"
  },
  {
    "latitude": 37.04391666666667,
    "longitude": -100.95997222222222,
    "airportCode": "KLBL",
    "airportName": "LIBERAL MID-AMERICA RGNL",
    "countryCode": "USA",
    "is_international": false,
    "countryName": "United States of America",
    "stateName": "Kansas",
    "stateAbbr": "KS"
  },
  {
    "latitude": 39.14123333333333,
    "longitude": -96.67179444444444,
    "airportCode": "KMHK",
    "airportName": "MANHATTAN RGNL",
    "countryCode": "USA",
    "is_international": false,
    "countryName": "United States of America",
    "stateName": "Kansas",
    "stateAbbr": "KS"
  },
  {
    "latitude": 37.62311666666667,
    "longitude": -97.26763055555556,
    "airportCode": "KIAB",
    "airportName": "MC CONNELL AFB",
    "countryCode": "USA",
    "is_international": false,
    "countryName": "United States of America",
    "stateName": "Kansas",
    "stateAbbr": "KS"
  },
  {
    "latitude": 38.05707777777778,
    "longitude": -97.27522777777777,
    "airportCode": "KEWK",
    "airportName": "NEWTON-CITY-COUNTY",
    "countryCode": "USA",
    "is_international": false,
    "countryName": "United States of America",
    "stateName": "Kansas",
    "stateAbbr": "KS"
  },
  {
    "latitude": 38.84760277777778,
    "longitude": -94.73758611111111,
    "airportCode": "KOJC",
    "airportName": "JOHNSON COUNTY EXECUTIVE",
    "countryCode": "USA",
    "is_international": false,
    "countryName": "United States of America",
    "stateName": "Kansas",
    "stateAbbr": "KS"
  },
  {
    "latitude": 37.33080555555556,
    "longitude": -95.50616666666667,
    "airportCode": "KPPF",
    "airportName": "TRI-CITY, KS",
    "countryCode": "USA",
    "is_international": false,
    "countryName": "United States of America",
    "stateName": "Kansas",
    "stateAbbr": "KS"
  },
  {
    "latitude": 37.44947222222222,
    "longitude": -94.73113888888889,
    "airportCode": "KPTS",
    "airportName": "ATKINSON MUNI",
    "countryCode": "USA",
    "is_international": false,
    "countryName": "United States of America",
    "stateName": "Kansas",
    "stateAbbr": "KS"
  },
  {
    "latitude": 37.70252777777778,
    "longitude": -98.747,
    "airportCode": "KPTT",
    "airportName": "PRATT RGNL",
    "countryCode": "USA",
    "is_international": false,
    "countryName": "United States of America",
    "stateName": "Kansas",
    "stateAbbr": "KS"
  },
  {
    "latitude": 38.87136111111111,
    "longitude": -98.81160277777778,
    "airportCode": "KRSL",
    "airportName": "RUSSELL MUNI",
    "countryCode": "USA",
    "is_international": false,
    "countryName": "United States of America",
    "stateName": "Kansas",
    "stateAbbr": "KS"
  },
  {
    "latitude": 38.79061111111111,
    "longitude": -97.65222222222222,
    "airportCode": "KSLN",
    "airportName": "SALINA RGNL",
    "countryCode": "USA",
    "is_international": false,
    "countryName": "United States of America",
    "stateName": "Kansas",
    "stateAbbr": "KS"
  },
  {
    "latitude": 38.950944444444445,
    "longitude": -95.66361111111112,
    "airportCode": "KFOE",
    "airportName": "FORBES FIELD",
    "countryCode": "USA",
    "is_international": true,
    "countryName": "United States of America",
    "stateName": "Kansas",
    "stateAbbr": "KS"
  },
  {
    "latitude": 39.06866666666667,
    "longitude": -95.62249999999999,
    "airportCode": "KTOP",
    "airportName": "PHILIP BILLARD MUNI",
    "countryCode": "USA",
    "is_international": false,
    "countryName": "United States of America",
    "stateName": "Kansas",
    "stateAbbr": "KS"
  },
  {
    "latitude": 37.64994444444444,
    "longitude": -97.43305555555555,
    "airportCode": "KICT",
    "airportName": "WICHITA DWIGHT D. EISENHOWER NATIONAL",
    "countryCode": "USA",
    "is_international": true,
    "countryName": "United States of America",
    "stateName": "Kansas",
    "stateAbbr": "KS"
  },
  {
    "latitude": 39.42744444444444,
    "longitude": -101.0466111111111,
    "airportCode": "KCBK",
    "airportName": "SHALZ FIELD",
    "countryCode": "USA",
    "is_international": false,
    "countryName": "United States of America",
    "stateName": "Kansas",
    "stateAbbr": "KS"
  },
  {
    "latitude": 36.96452777777778,
    "longitude": -86.41966666666667,
    "airportCode": "KBWG",
    "airportName": "BOWLING GREEN-WARREN COUNTY RGNL",
    "countryCode": "USA",
    "is_international": false,
    "countryName": "United States of America",
    "stateName": "Kentucky",
    "stateAbbr": "KY"
  },
  {
    "latitude": 39.04883611111111,
    "longitude": -84.66782222222223,
    "airportCode": "KCVG",
    "airportName": "CINCINNATI/NORTHERN KENTUCKY INTL",
    "countryCode": "USA",
    "is_international": true,
    "countryName": "United States of America",
    "stateName": "Kentucky",
    "stateAbbr": "KY"
  },
  {
    "latitude": 36.668499999999995,
    "longitude": -87.49616666666667,
    "airportCode": "KHOP",
    "airportName": "CAMPBELL AAF (FORT CAMPBELL)",
    "countryCode": "USA",
    "is_international": false,
    "countryName": "United States of America",
    "stateName": "Kentucky",
    "stateAbbr": "KY"
  },
  {
    "latitude": 37.907063888888885,
    "longitude": -85.97203333333333,
    "airportCode": "KFTK",
    "airportName": "GODMAN AAF",
    "countryCode": "USA",
    "is_international": false,
    "countryName": "United States of America",
    "stateName": "Kentucky",
    "stateAbbr": "KY"
  },
  {
    "latitude": 38.18173055555555,
    "longitude": -84.90674722222222,
    "airportCode": "KFFT",
    "airportName": "CAPITAL CITY",
    "countryCode": "USA",
    "is_international": false,
    "countryName": "United States of America",
    "stateName": "Kentucky",
    "stateAbbr": "KY"
  },
  {
    "latitude": 37.031777777777776,
    "longitude": -85.95375,
    "airportCode": "KGLW",
    "airportName": "GLASGOW MUNI",
    "countryCode": "USA",
    "is_international": false,
    "countryName": "United States of America",
    "stateName": "Kentucky",
    "stateAbbr": "KY"
  },
  {
    "latitude": 38.03675,
    "longitude": -84.60863888888888,
    "airportCode": "KLEX",
    "airportName": "BLUE GRASS",
    "countryCode": "USA",
    "is_international": true,
    "countryName": "United States of America",
    "stateName": "Kentucky",
    "stateAbbr": "KY"
  },
  {
    "latitude": 37.08688888888889,
    "longitude": -84.07738888888889,
    "airportCode": "KLOZ",
    "airportName": "LONDON-CORBIN ARPT-MAGEE FIELD",
    "countryCode": "USA",
    "is_international": false,
    "countryName": "United States of America",
    "stateName": "Kentucky",
    "stateAbbr": "KY"
  },
  {
    "latitude": 38.17408333333333,
    "longitude": -85.73649722222223,
    "airportCode": "KSDF",
    "airportName": "LOUISVILLE INTL-STANDIFORD FIELD",
    "countryCode": "USA",
    "is_international": true,
    "countryName": "United States of America",
    "stateName": "Kentucky",
    "stateAbbr": "KY"
  },
  {
    "latitude": 38.227983333333334,
    "longitude": -85.66374722222223,
    "airportCode": "KLOU",
    "airportName": "BOWMAN FIELD",
    "countryCode": "USA",
    "is_international": false,
    "countryName": "United States of America",
    "stateName": "Kentucky",
    "stateAbbr": "KY"
  },
  {
    "latitude": 36.66458333333333,
    "longitude": -88.37277777777777,
    "airportCode": "KCEY",
    "airportName": "KYLE-OAKLEY FIELD",
    "countryCode": "USA",
    "is_international": false,
    "countryName": "United States of America",
    "stateName": "Kentucky",
    "stateAbbr": "KY"
  },
  {
    "latitude": 37.73883333333333,
    "longitude": -87.16682777777778,
    "airportCode": "KOWB",
    "airportName": "OWENSBORO-DAVIES COUNTY",
    "countryCode": "USA",
    "is_international": false,
    "countryName": "United States of America",
    "stateName": "Kentucky",
    "stateAbbr": "KY"
  },
  {
    "latitude": 37.06028611111111,
    "longitude": -88.77295833333334,
    "airportCode": "KPAH",
    "airportName": "BARKLEY RGNL",
    "countryCode": "USA",
    "is_international": false,
    "countryName": "United States of America",
    "stateName": "Kentucky",
    "stateAbbr": "KY"
  },
  {
    "latitude": 31.327372222222223,
    "longitude": -92.54855555555555,
    "airportCode": "KAEX",
    "airportName": "ALEXANDRIA INTL",
    "countryCode": "USA",
    "is_international": false,
    "countryName": "United States of America",
    "stateName": "Louisiana",
    "stateAbbr": "LA"
  },
  {
    "latitude": 31.394902777777776,
    "longitude": -92.29577222222223,
    "airportCode": "KESF",
    "airportName": "ESLER RGNL",
    "countryCode": "USA",
    "is_international": false,
    "countryName": "United States of America",
    "stateName": "Louisiana",
    "stateAbbr": "LA"
  },
  {
    "latitude": 32.501933333333334,
    "longitude": -93.66262777777779,
    "airportCode": "KBAD",
    "airportName": "BARKDALE AFB",
    "countryCode": "USA",
    "is_international": false,
    "countryName": "United States of America",
    "stateName": "Louisiana",
    "stateAbbr": "LA"
  },
  {
    "latitude": 30.532916666666665,
    "longitude": -91.1498888888889,
    "airportCode": "KBTR",
    "airportName": "BATON ROUGE METROPOLITAN,RYAN FIELD",
    "countryCode": "USA",
    "is_international": true,
    "countryName": "United States of America",
    "stateName": "Louisiana",
    "stateAbbr": "LA"
  },
  {
    "latitude": 30.81368611111111,
    "longitude": -89.86496388888888,
    "airportCode": "KBXA",
    "airportName": "GEORGE R CARR MEMORIAL AIR FLD",
    "countryCode": "USA",
    "is_international": false,
    "countryName": "United States of America",
    "stateName": "Louisiana",
    "stateAbbr": "LA"
  },
  {
    "latitude": 30.210583333333332,
    "longitude": -93.14319444444445,
    "airportCode": "KCWF",
    "airportName": "CHENNAULT INTL",
    "countryCode": "USA",
    "is_international": false,
    "countryName": "United States of America",
    "stateName": "Louisiana",
    "stateAbbr": "LA"
  },
  {
    "latitude": 30.831722222222222,
    "longitude": -93.33991666666667,
    "airportCode": "KDRI",
    "airportName": "BEAUREGARD RGNL",
    "countryCode": "USA",
    "is_international": false,
    "countryName": "United States of America",
    "stateName": "Louisiana",
    "stateAbbr": "LA"
  },
  {
    "latitude": 31.044788888888892,
    "longitude": -93.19164166666667,
    "airportCode": "KPOE",
    "airportName": "FORT POLK AAF",
    "countryCode": "USA",
    "is_international": false,
    "countryName": "United States of America",
    "stateName": "Louisiana",
    "stateAbbr": "LA"
  },
  {
    "latitude": 29.5665,
    "longitude": -90.660425,
    "airportCode": "KHUM",
    "airportName": "HOUMA-TERREBONNE",
    "countryCode": "USA",
    "is_international": false,
    "countryName": "United States of America",
    "stateName": "Louisiana",
    "stateAbbr": "LA"
  },
  {
    "latitude": 30.205027777777776,
    "longitude": -91.98775,
    "airportCode": "KLFT",
    "airportName": "LAFAYETTE RGNL",
    "countryCode": "USA",
    "is_international": true,
    "countryName": "United States of America",
    "stateName": "Louisiana",
    "stateAbbr": "LA"
  },
  {
    "latitude": 30.126097222222224,
    "longitude": -93.22340277777778,
    "airportCode": "KLCH",
    "airportName": "LAKE CHARLES RGNL",
    "countryCode": "USA",
    "is_international": true,
    "countryName": "United States of America",
    "stateName": "Louisiana",
    "stateAbbr": "LA"
  },
  {
    "latitude": 32.51086111111111,
    "longitude": -92.03766666666667,
    "airportCode": "KMLU",
    "airportName": "MONROE RGNL",
    "countryCode": "USA",
    "is_international": true,
    "countryName": "United States of America",
    "stateName": "Louisiana",
    "stateAbbr": "LA"
  },
  {
    "latitude": 30.042416666666668,
    "longitude": -90.02826666666667,
    "airportCode": "KNEW",
    "airportName": "LAKEFRONT",
    "countryCode": "USA",
    "is_international": false,
    "countryName": "United States of America",
    "stateName": "Louisiana",
    "stateAbbr": "LA"
  },
  {
    "latitude": 29.82721388888889,
    "longitude": -90.02658888888888,
    "airportCode": "KNBG",
    "airportName": "NEW ORLEANS NAS JRB/ALVIN CALLENDER FIELD",
    "countryCode": "USA",
    "is_international": false,
    "countryName": "United States of America",
    "stateName": "Louisiana",
    "stateAbbr": "LA"
  },
  {
    "latitude": 29.993277777777777,
    "longitude": -90.25902777777777,
    "airportCode": "KMSY",
    "airportName": "LOUIS ARMSTRONG NEW ORLEANS INTL",
    "countryCode": "USA",
    "is_international": true,
    "countryName": "United States of America",
    "stateName": "Louisiana",
    "stateAbbr": "LA"
  },
  {
    "latitude": 30.55838888888889,
    "longitude": -92.09938888888888,
    "airportCode": "KOPL",
    "airportName": "ST LANDRY PARISH-AHART FIELD",
    "countryCode": "USA",
    "is_international": false,
    "countryName": "United States of America",
    "stateName": "Louisiana",
    "stateAbbr": "LA"
  },
  {
    "latitude": 32.5146,
    "longitude": -92.58844166666667,
    "airportCode": "KRSN",
    "airportName": "RUSTON RGNL",
    "countryCode": "USA",
    "is_international": false,
    "countryName": "United States of America",
    "stateName": "Louisiana",
    "stateAbbr": "LA"
  },
  {
    "latitude": 29.709544444444443,
    "longitude": -91.33897777777777,
    "airportCode": "KPTN",
    "airportName": "HARRY P WILLIAMS MEMORIAL",
    "countryCode": "USA",
    "is_international": false,
    "countryName": "United States of America",
    "stateName": "Louisiana",
    "stateAbbr": "LA"
  },
  {
    "latitude": 32.54021944444444,
    "longitude": -93.74502222222222,
    "airportCode": "KDTN",
    "airportName": "SHREVEPORT DOWNTOWN",
    "countryCode": "USA",
    "is_international": false,
    "countryName": "United States of America",
    "stateName": "Louisiana",
    "stateAbbr": "LA"
  },
  {
    "latitude": 32.44661111111111,
    "longitude": -93.8256111111111,
    "airportCode": "KSHV",
    "airportName": "SHREVEPORT RGNL",
    "countryCode": "USA",
    "is_international": true,
    "countryName": "United States of America",
    "stateName": "Louisiana",
    "stateAbbr": "LA"
  },
  {
    "latitude": 42.469944444444444,
    "longitude": -71.289,
    "airportCode": "KBED",
    "airportName": "LAURENCE G HANSCOM FLD",
    "countryCode": "USA",
    "is_international": true,
    "countryName": "United States of America",
    "stateName": "Massachusetts",
    "stateAbbr": "MA"
  },
  {
    "latitude": 42.584138888888894,
    "longitude": -70.91614166666668,
    "airportCode": "KBVY",
    "airportName": "BEVERLY MUNI",
    "countryCode": "USA",
    "is_international": false,
    "countryName": "United States of America",
    "stateName": "Massachusetts",
    "stateAbbr": "MA"
  },
  {
    "latitude": 42.362944444444445,
    "longitude": -71.00638888888889,
    "airportCode": "KBOS",
    "airportName": "GENERAL EDWARD LAWRENCE LOGAN INTL",
    "countryCode": "USA",
    "is_international": true,
    "countryName": "United States of America",
    "stateName": "Massachusetts",
    "stateAbbr": "MA"
  },
  {
    "latitude": 42.19401388888888,
    "longitude": -72.53478333333334,
    "airportCode": "KCEF",
    "airportName": "WESTOVER AFB METROPOLITAN",
    "countryCode": "USA",
    "is_international": false,
    "countryName": "United States of America",
    "stateName": "Massachusetts",
    "stateAbbr": "MA"
  },
  {
    "latitude": 41.65913888888889,
    "longitude": -70.52280555555555,
    "airportCode": "KFMH",
    "airportName": "CAPE COD COAST GUARD AIR STATION",
    "countryCode": "USA",
    "is_international": false,
    "countryName": "United States of America",
    "stateName": "Massachusetts",
    "stateAbbr": "MA"
  },
  {
    "latitude": 41.669333333333334,
    "longitude": -70.2803611111111,
    "airportCode": "KHYA",
    "airportName": "BARNSTABLE MUNI-BOARDMAN/POLANDO FIELD",
    "countryCode": "USA",
    "is_international": false,
    "countryName": "United States of America",
    "stateName": "Massachusetts",
    "stateAbbr": "MA"
  },
  {
    "latitude": 42.717194444444445,
    "longitude": -71.12341666666666,
    "airportCode": "KLWM",
    "airportName": "LAWRENCE MUNI .MA",
    "countryCode": "USA",
    "is_international": false,
    "countryName": "United States of America",
    "stateName": "Massachusetts",
    "stateAbbr": "MA"
  },
  {
    "latitude": 41.39341944444445,
    "longitude": -70.61388333333333,
    "airportCode": "KMVY",
    "airportName": "MARTHA'S VINEYARD",
    "countryCode": "USA",
    "is_international": false,
    "countryName": "United States of America",
    "stateName": "Massachusetts",
    "stateAbbr": "MA"
  },
  {
    "latitude": 41.252975,
    "longitude": -70.0599111111111,
    "airportCode": "KACK",
    "airportName": "NANTUCKET MEMORIAL",
    "countryCode": "USA",
    "is_international": false,
    "countryName": "United States of America",
    "stateName": "Massachusetts",
    "stateAbbr": "MA"
  },
  {
    "latitude": 41.676563888888886,
    "longitude": -70.95783333333334,
    "airportCode": "KEWB",
    "airportName": "NEW BEDFORD RGNL",
    "countryCode": "USA",
    "is_international": false,
    "countryName": "United States of America",
    "stateName": "Massachusetts",
    "stateAbbr": "MA"
  },
  {
    "latitude": 42.190527777777774,
    "longitude": -71.17294444444445,
    "airportCode": "KOWD",
    "airportName": "NORWOOD MEMORIAL",
    "countryCode": "USA",
    "is_international": false,
    "countryName": "United States of America",
    "stateName": "Massachusetts",
    "stateAbbr": "MA"
  },
  {
    "latitude": 42.42761944444444,
    "longitude": -73.29083888888889,
    "airportCode": "KPSF",
    "airportName": "PITTSFIELD MUNI",
    "countryCode": "USA",
    "is_international": false,
    "countryName": "United States of America",
    "stateName": "Massachusetts",
    "stateAbbr": "MA"
  },
  {
    "latitude": 41.90902777777777,
    "longitude": -70.72877777777778,
    "airportCode": "KPYM",
    "airportName": "PLYMOUTH MUNI",
    "countryCode": "USA",
    "is_international": false,
    "countryName": "United States of America",
    "stateName": "Massachusetts",
    "stateAbbr": "MA"
  },
  {
    "latitude": 42.07227777777778,
    "longitude": -70.22072222222222,
    "airportCode": "KPVC",
    "airportName": "PROVINCETOWN MUNI",
    "countryCode": "USA",
    "is_international": false,
    "countryName": "United States of America",
    "stateName": "Massachusetts",
    "stateAbbr": "MA"
  },
  {
    "latitude": 42.157944444444446,
    "longitude": -72.71586111111111,
    "airportCode": "KBAF",
    "airportName": "WESTFIELD-BARNES RGNL",
    "countryCode": "USA",
    "is_international": false,
    "countryName": "United States of America",
    "stateName": "Massachusetts",
    "stateAbbr": "MA"
  },
  {
    "latitude": 42.26713888888889,
    "longitude": -71.8756111111111,
    "airportCode": "KORH",
    "airportName": "WORCESTER RGNL",
    "countryCode": "USA",
    "is_international": false,
    "countryName": "United States of America",
    "stateName": "Massachusetts",
    "stateAbbr": "MA"
  },
  {
    "latitude": 38.810824999999994,
    "longitude": -76.86704444444443,
    "airportCode": "KADW",
    "airportName": "JOINT BASE ANDREWS",
    "countryCode": "USA",
    "is_international": true,
    "countryName": "United States of America",
    "stateName": "Maryland",
    "stateAbbr": "MD"
  },
  {
    "latitude": 39.175725,
    "longitude": -76.66899166666667,
    "airportCode": "KBWI",
    "airportName": "BALTIMORE/WASHINGTON INTL THURGOOD MARSHALL",
    "countryCode": "USA",
    "is_international": true,
    "countryName": "United States of America",
    "stateName": "Maryland",
    "stateAbbr": "MD"
  },
  {
    "latitude": 39.32566666666667,
    "longitude": -76.41377777777778,
    "airportCode": "KMTN",
    "airportName": "MARTIN STATE",
    "countryCode": "USA",
    "is_international": false,
    "countryName": "United States of America",
    "stateName": "Maryland",
    "stateAbbr": "MD"
  },
  {
    "latitude": 38.53933333333333,
    "longitude": -76.0303888888889,
    "airportCode": "KCGE",
    "airportName": "CAMBRIDGE-DORCHESTER",
    "countryCode": "USA",
    "is_international": false,
    "countryName": "United States of America",
    "stateName": "Maryland",
    "stateAbbr": "MD"
  },
  {
    "latitude": 39.615386111111114,
    "longitude": -78.76080555555555,
    "airportCode": "KCBE",
    "airportName": "GREATER CUMBERLAND RGNL",
    "countryCode": "USA",
    "is_international": false,
    "countryName": "United States of America",
    "stateName": "Maryland",
    "stateAbbr": "MD"
  },
  {
    "latitude": 38.80416666666667,
    "longitude": -76.069,
    "airportCode": "KESN",
    "airportName": "EASTON/NEWNAM FIELD",
    "countryCode": "USA",
    "is_international": false,
    "countryName": "United States of America",
    "stateName": "Maryland",
    "stateAbbr": "MD"
  },
  {
    "latitude": 39.08538611111111,
    "longitude": -76.75941388888889,
    "airportCode": "KFME",
    "airportName": "TIPTON",
    "countryCode": "USA",
    "is_international": false,
    "countryName": "United States of America",
    "stateName": "Maryland",
    "stateAbbr": "MD"
  },
  {
    "latitude": 39.41755555555555,
    "longitude": -77.37430555555555,
    "airportCode": "KFDK",
    "airportName": "FREDERICK MUNI",
    "countryCode": "USA",
    "is_international": false,
    "countryName": "United States of America",
    "stateName": "Maryland",
    "stateAbbr": "MD"
  },
  {
    "latitude": 39.16833333333333,
    "longitude": -77.16600000000001,
    "airportCode": "KGAI",
    "airportName": "MONTGOMERY COUNTY AIRPARK",
    "countryCode": "USA",
    "is_international": false,
    "countryName": "United States of America",
    "stateName": "Maryland",
    "stateAbbr": "MD"
  },
  {
    "latitude": 39.7085,
    "longitude": -77.7265,
    "airportCode": "KHGR",
    "airportName": "HAGERSTOWN RGNL-RICHARD A HENSON FLD",
    "countryCode": "USA",
    "is_international": false,
    "countryName": "United States of America",
    "stateName": "Maryland",
    "stateAbbr": "MD"
  },
  {
    "latitude": 38.28633333333333,
    "longitude": -76.40997222222222,
    "airportCode": "KNHK",
    "airportName": "PATUXENT RIVER NAS/TRAPNELL FIELD",
    "countryCode": "USA",
    "is_international": false,
    "countryName": "United States of America",
    "stateName": "Maryland",
    "stateAbbr": "MD"
  },
  {
    "latitude": 38.34018888888889,
    "longitude": -75.50947777777778,
    "airportCode": "KSBY",
    "airportName": "SALISBURY-OCEAN CITY WICOMICO RGNL",
    "countryCode": "USA",
    "is_international": false,
    "countryName": "United States of America",
    "stateName": "Maryland",
    "stateAbbr": "MD"
  },
  {
    "latitude": 44.04847222222222,
    "longitude": -70.28350833333333,
    "airportCode": "KLEW",
    "airportName": "AUBURN/LEWISTON MUNI",
    "countryCode": "USA",
    "is_international": false,
    "countryName": "United States of America",
    "stateName": "Maine",
    "stateAbbr": "ME"
  },
  {
    "latitude": 44.32064722222223,
    "longitude": -69.79731666666666,
    "airportCode": "KAUG",
    "airportName": "AUGUSTA STATE",
    "countryCode": "USA",
    "is_international": false,
    "countryName": "United States of America",
    "stateName": "Maine",
    "stateAbbr": "ME"
  },
  {
    "latitude": 44.80744444444444,
    "longitude": -68.82813888888889,
    "airportCode": "KBGR",
    "airportName": "BANGOR INTL",
    "countryCode": "USA",
    "is_international": false,
    "countryName": "United States of America",
    "stateName": "Maine",
    "stateAbbr": "ME"
  },
  {
    "latitude": 44.44976666666666,
    "longitude": -68.36156388888888,
    "airportCode": "KBHB",
    "airportName": "HANCOCK COUNTY-BAR HARBOR",
    "countryCode": "USA",
    "is_international": false,
    "countryName": "United States of America",
    "stateName": "Maine",
    "stateAbbr": "ME"
  },
  {
    "latitude": 46.8715,
    "longitude": -68.01791666666666,
    "airportCode": "KCAR",
    "airportName": "CARIBOU MUNI",
    "countryCode": "USA",
    "is_international": false,
    "countryName": "United States of America",
    "stateName": "Maine",
    "stateAbbr": "ME"
  },
  {
    "latitude": 47.2855,
    "longitude": -68.31272222222222,
    "airportCode": "KFVE",
    "airportName": "FRENCHVILLE/NORTHERN AROOSTOOK RGNL,ME.",
    "countryCode": "USA",
    "is_international": false,
    "countryName": "United States of America",
    "stateName": "Maine",
    "stateAbbr": "ME"
  },
  {
    "latitude": 46.124608333333335,
    "longitude": -67.7923611111111,
    "airportCode": "KHUL",
    "airportName": "HOULTON INTL",
    "countryCode": "USA",
    "is_international": false,
    "countryName": "United States of America",
    "stateName": "Maine",
    "stateAbbr": "ME"
  },
  {
    "latitude": 45.64783333333333,
    "longitude": -68.68555555555555,
    "airportCode": "KMLT",
    "airportName": "MILLINOCKET MUNI",
    "countryCode": "USA",
    "is_international": false,
    "countryName": "United States of America",
    "stateName": "Maine",
    "stateAbbr": "ME"
  },
  {
    "latitude": 43.64564166666666,
    "longitude": -70.30861388888889,
    "airportCode": "KPWM",
    "airportName": "PORTLAND INTL JETPORT",
    "countryCode": "USA",
    "is_international": true,
    "countryName": "United States of America",
    "stateName": "Maine",
    "stateAbbr": "ME"
  },
  {
    "latitude": 44.06007222222222,
    "longitude": -69.09925555555554,
    "airportCode": "KRKD",
    "airportName": "KNOX COUNTY RGNL",
    "countryCode": "USA",
    "is_international": false,
    "countryName": "United States of America",
    "stateName": "Maine",
    "stateAbbr": "ME"
  },
  {
    "latitude": 43.39380555555555,
    "longitude": -70.708,
    "airportCode": "KSFM",
    "airportName": "SANFORD SEACOAST RGNL",
    "countryCode": "USA",
    "is_international": false,
    "countryName": "United States of America",
    "stateName": "Maine",
    "stateAbbr": "ME"
  },
  {
    "latitude": 44.53325,
    "longitude": -69.67552777777779,
    "airportCode": "KWVL",
    "airportName": "WATERVILLE ROBERT LAFLEUR",
    "countryCode": "USA",
    "is_international": false,
    "countryName": "United States of America",
    "stateName": "Maine",
    "stateAbbr": "ME"
  },
  {
    "latitude": 41.86627777777778,
    "longitude": -84.078,
    "airportCode": "KADG",
    "airportName": "LENAWEE COUNTY",
    "countryCode": "USA",
    "is_international": false,
    "countryName": "United States of America",
    "stateName": "Michigan",
    "stateAbbr": "MI"
  },
  {
    "latitude": 43.322138888888894,
    "longitude": -84.68794444444445,
    "airportCode": "KAMN",
    "airportName": "GRATIOT COMMUNITY",
    "countryCode": "USA",
    "is_international": false,
    "countryName": "United States of America",
    "stateName": "Michigan",
    "stateAbbr": "MI"
  },
  {
    "latitude": 45.07808333333334,
    "longitude": -83.56030555555556,
    "airportCode": "KAPN",
    "airportName": "ALPENA COUNTY RGNL",
    "countryCode": "USA",
    "is_international": false,
    "countryName": "United States of America",
    "stateName": "Michigan",
    "stateAbbr": "MI"
  },
  {
    "latitude": 42.22298333333333,
    "longitude": -83.74560833333334,
    "airportCode": "KARB",
    "airportName": "ANN ARBOR MUNI",
    "countryCode": "USA",
    "is_international": false,
    "countryName": "United States of America",
    "stateName": "Michigan",
    "stateAbbr": "MI"
  },
  {
    "latitude": 42.30647222222222,
    "longitude": -85.25008888888888,
    "airportCode": "KBTL",
    "airportName": "W K KELLOGG",
    "countryCode": "USA",
    "is_international": false,
    "countryName": "United States of America",
    "stateName": "Michigan",
    "stateAbbr": "MI"
  },
  {
    "latitude": 44.98858333333333,
    "longitude": -85.19836111111111,
    "airportCode": "KACB",
    "airportName": "ANTRIM COUNTY",
    "countryCode": "USA",
    "is_international": false,
    "countryName": "United States of America",
    "stateName": "Michigan",
    "stateAbbr": "MI"
  },
  {
    "latitude": 42.12852777777778,
    "longitude": -86.42613333333334,
    "airportCode": "KBEH",
    "airportName": "SOUTHWEST MICHIGAN RGNL",
    "countryCode": "USA",
    "is_international": false,
    "countryName": "United States of America",
    "stateName": "Michigan",
    "stateAbbr": "MI"
  },
  {
    "latitude": 44.27531388888889,
    "longitude": -85.41894166666667,
    "airportCode": "KCAD",
    "airportName": "WEXFORD COUNTY",
    "countryCode": "USA",
    "is_international": false,
    "countryName": "United States of America",
    "stateName": "Michigan",
    "stateAbbr": "MI"
  },
  {
    "latitude": 46.25075277777778,
    "longitude": -84.4723861111111,
    "airportCode": "KCIU",
    "airportName": "CHIPPEWA COUNTY INTL",
    "countryCode": "USA",
    "is_international": false,
    "countryName": "United States of America",
    "stateName": "Michigan",
    "stateAbbr": "MI"
  },
  {
    "latitude": 42.409324999999995,
    "longitude": -83.01018055555555,
    "airportCode": "KDET",
    "airportName": "COLEMAN A. YOUNG MUNI",
    "countryCode": "USA",
    "is_international": false,
    "countryName": "United States of America",
    "stateName": "Michigan",
    "stateAbbr": "MI"
  },
  {
    "latitude": 42.240027777777776,
    "longitude": -83.53088888888888,
    "airportCode": "KYIP",
    "airportName": "WILLOW RUN",
    "countryCode": "USA",
    "is_international": false,
    "countryName": "United States of America",
    "stateName": "Michigan",
    "stateAbbr": "MI"
  },
  {
    "latitude": 42.21241666666667,
    "longitude": -83.35338888888889,
    "airportCode": "KDTW",
    "airportName": "DETROIT METROPOLITAN WAYNE COUNTY",
    "countryCode": "USA",
    "is_international": true,
    "countryName": "United States of America",
    "stateName": "Michigan",
    "stateAbbr": "MI"
  },
  {
    "latitude": 42.965472222222225,
    "longitude": -83.74475,
    "airportCode": "KFNT",
    "airportName": "BISHOP INTl",
    "countryCode": "USA",
    "is_international": true,
    "countryName": "United States of America",
    "stateName": "Michigan",
    "stateAbbr": "MI"
  },
  {
    "latitude": 45.01302777777778,
    "longitude": -84.70344444444444,
    "airportCode": "KGLR",
    "airportName": "GAYLORD RGNL",
    "countryCode": "USA",
    "is_international": false,
    "countryName": "United States of America",
    "stateName": "Michigan",
    "stateAbbr": "MI"
  },
  {
    "latitude": 42.880833333333335,
    "longitude": -85.52280555555555,
    "airportCode": "KGRR",
    "airportName": "GERALD R. FORD INTL",
    "countryCode": "USA",
    "is_international": true,
    "countryName": "United States of America",
    "stateName": "Michigan",
    "stateAbbr": "MI"
  },
  {
    "latitude": 46.35363888888889,
    "longitude": -87.39536111111111,
    "airportCode": "KSAW",
    "airportName": "MARQUETTE, MI, SAWYER INTL ARPT",
    "countryCode": "USA",
    "is_international": false,
    "countryName": "United States of America",
    "stateName": "Michigan",
    "stateAbbr": "MI"
  },
  {
    "latitude": 47.168416666666666,
    "longitude": -88.48906111111111,
    "airportCode": "KCMX",
    "airportName": "HOUGHTON COUNTY MEMORIAL",
    "countryCode": "USA",
    "is_international": false,
    "countryName": "United States of America",
    "stateName": "Michigan",
    "stateAbbr": "MI"
  },
  {
    "latitude": 44.35986666666667,
    "longitude": -84.66948055555557,
    "airportCode": "KHTL",
    "airportName": "ROSCOMMON COUNTY - BLODGETT MEMORIAL",
    "countryCode": "USA",
    "is_international": false,
    "countryName": "United States of America",
    "stateName": "Michigan",
    "stateAbbr": "MI"
  },
  {
    "latitude": 45.818361111111116,
    "longitude": -88.11455555555555,
    "airportCode": "KIMT",
    "airportName": "FORD",
    "countryCode": "USA",
    "is_international": false,
    "countryName": "United States of America",
    "stateName": "Michigan",
    "stateAbbr": "MI"
  },
  {
    "latitude": 46.52747222222222,
    "longitude": -90.13138888888888,
    "airportCode": "KIWD",
    "airportName": "GOGEBIC-IRON COUNTY",
    "countryCode": "USA",
    "is_international": false,
    "countryName": "United States of America",
    "stateName": "Michigan",
    "stateAbbr": "MI"
  },
  {
    "latitude": 42.260416666666664,
    "longitude": -84.46044444444445,
    "airportCode": "KJXN",
    "airportName": "JACKSON COUNTY-REYNOLDS FIELD",
    "countryCode": "USA",
    "is_international": false,
    "countryName": "United States of America",
    "stateName": "Michigan",
    "stateAbbr": "MI"
  },
  {
    "latitude": 42.23438888888889,
    "longitude": -85.55155555555555,
    "airportCode": "KAZO",
    "airportName": "KALAMAZOO/BATTLE CREEK INTL",
    "countryCode": "USA",
    "is_international": false,
    "countryName": "United States of America",
    "stateName": "Michigan",
    "stateAbbr": "MI"
  },
  {
    "latitude": 42.778638888888885,
    "longitude": -84.58619444444444,
    "airportCode": "KLAN",
    "airportName": "CAPITAL REGION INTL",
    "countryCode": "USA",
    "is_international": true,
    "countryName": "United States of America",
    "stateName": "Michigan",
    "stateAbbr": "MI"
  },
  {
    "latitude": 43.96252777777778,
    "longitude": -86.40791666666668,
    "airportCode": "KLDM",
    "airportName": "MASON COUNTY",
    "countryCode": "USA",
    "is_international": false,
    "countryName": "United States of America",
    "stateName": "Michigan",
    "stateAbbr": "MI"
  },
  {
    "latitude": 45.864983333333335,
    "longitude": -84.63709444444446,
    "airportCode": "KMCD",
    "airportName": "MACKINAC ISLAND",
    "countryCode": "USA",
    "is_international": false,
    "countryName": "United States of America",
    "stateName": "Michigan",
    "stateAbbr": "MI"
  },
  {
    "latitude": 44.27247222222222,
    "longitude": -86.24688888888889,
    "airportCode": "KMBL",
    "airportName": "MANISTEE CO.-BLACKER",
    "countryCode": "USA",
    "is_international": false,
    "countryName": "United States of America",
    "stateName": "Michigan",
    "stateAbbr": "MI"
  },
  {
    "latitude": 45.97463888888889,
    "longitude": -86.17183333333334,
    "airportCode": "KISQ",
    "airportName": "SCHOOLCRAFT COUNTY",
    "countryCode": "USA",
    "is_international": false,
    "countryName": "United States of America",
    "stateName": "Michigan",
    "stateAbbr": "MI"
  },
  {
    "latitude": 45.12668611111111,
    "longitude": -87.63854166666667,
    "airportCode": "KMNM",
    "airportName": "MENOMINEE-MARINETTE TWIN COUNTY",
    "countryCode": "USA",
    "is_international": false,
    "countryName": "United States of America",
    "stateName": "Michigan",
    "stateAbbr": "MI"
  },
  {
    "latitude": 43.62163888888889,
    "longitude": -84.73730555555555,
    "airportCode": "KMOP",
    "airportName": "MOUNT PLEASANT MUNI, MI",
    "countryCode": "USA",
    "is_international": false,
    "countryName": "United States of America",
    "stateName": "Michigan",
    "stateAbbr": "MI"
  },
  {
    "latitude": 43.169488888888885,
    "longitude": -86.23822222222222,
    "airportCode": "KMKG",
    "airportName": "MUSKEGON COUNTY",
    "countryCode": "USA",
    "is_international": false,
    "countryName": "United States of America",
    "stateName": "Michigan",
    "stateAbbr": "MI"
  },
  {
    "latitude": 44.451527777777784,
    "longitude": -83.39416666666668,
    "airportCode": "KOSC",
    "airportName": "OSCODA-WURTSMITH",
    "countryCode": "USA",
    "is_international": false,
    "countryName": "United States of America",
    "stateName": "Michigan",
    "stateAbbr": "MI"
  },
  {
    "latitude": 45.57091666666667,
    "longitude": -84.79672222222221,
    "airportCode": "KPLN",
    "airportName": "PELLSTON RGNL AIRPORT OF EMMET COUNTY",
    "countryCode": "USA",
    "is_international": false,
    "countryName": "United States of America",
    "stateName": "Michigan",
    "stateAbbr": "MI"
  },
  {
    "latitude": 42.66563611111111,
    "longitude": -83.42050555555556,
    "airportCode": "KPTK",
    "airportName": "OAKLAND COUNTRY INTL",
    "countryCode": "USA",
    "is_international": false,
    "countryName": "United States of America",
    "stateName": "Michigan",
    "stateAbbr": "MI"
  },
  {
    "latitude": 42.91097222222222,
    "longitude": -82.52886111111111,
    "airportCode": "KPHN",
    "airportName": "ST CLAIR COUNTY INTL",
    "countryCode": "USA",
    "is_international": false,
    "countryName": "United States of America",
    "stateName": "Michigan",
    "stateAbbr": "MI"
  },
  {
    "latitude": 43.532916666666665,
    "longitude": -84.07963888888888,
    "airportCode": "KMBS",
    "airportName": "MBS INTL",
    "countryCode": "USA",
    "is_international": false,
    "countryName": "United States of America",
    "stateName": "Michigan",
    "stateAbbr": "MI"
  },
  {
    "latitude": 42.61389444444445,
    "longitude": -82.8369111111111,
    "airportCode": "KMTC",
    "airportName": "SELFRIDGE ANGB",
    "countryCode": "USA",
    "is_international": false,
    "countryName": "United States of America",
    "stateName": "Michigan",
    "stateAbbr": "MI"
  },
  {
    "latitude": 41.81328611111111,
    "longitude": -85.43895833333333,
    "airportCode": "KIRS",
    "airportName": "KIRSCH MUNI",
    "countryCode": "USA",
    "is_international": false,
    "countryName": "United States of America",
    "stateName": "Michigan",
    "stateAbbr": "MI"
  },
  {
    "latitude": 41.95975,
    "longitude": -85.59305555555555,
    "airportCode": "KHAI",
    "airportName": "THREE RIVERS MUNI DR HAINES",
    "countryCode": "USA",
    "is_international": false,
    "countryName": "United States of America",
    "stateName": "Michigan",
    "stateAbbr": "MI"
  },
  {
    "latitude": 44.74158333333333,
    "longitude": -85.58177777777777,
    "airportCode": "KTVC",
    "airportName": "CHERRY CAPITAL",
    "countryCode": "USA",
    "is_international": true,
    "countryName": "United States of America",
    "stateName": "Michigan",
    "stateAbbr": "MI"
  },
  {
    "latitude": 43.68131388888889,
    "longitude": -93.36814722222222,
    "airportCode": "KAEL",
    "airportName": "ALBERT LEA MUNI",
    "countryCode": "USA",
    "is_international": false,
    "countryName": "United States of America",
    "stateName": "Minnesota",
    "stateAbbr": "MN"
  },
  {
    "latitude": 45.866305555555556,
    "longitude": -95.39466666666668,
    "airportCode": "KAXN",
    "airportName": "CHANDLER FIELD",
    "countryCode": "USA",
    "is_international": false,
    "countryName": "United States of America",
    "stateName": "Minnesota",
    "stateAbbr": "MN"
  },
  {
    "latitude": 43.662638888888885,
    "longitude": -92.93291666666667,
    "airportCode": "KAUM",
    "airportName": "AUSTIN MUNI",
    "countryCode": "USA",
    "is_international": false,
    "countryName": "United States of America",
    "stateName": "Minnesota",
    "stateAbbr": "MN"
  },